{
    "type": "FeatureCollection",
    "features": [
        {
            "type": "Feature",
            "geometry": {
                "type": "Point",
                "coordinates": [
                    -0.169815218,
                    51.49747072
                ]
            },
            "properties": {
                "name": "Brompton Oratory"
            }
        },
        {
            "type": "Feature",
            "geometry": {
                "type": "Point",
                "coordinates": [
                    -0.132918466,
                    51.4957021
                ]
            },
            "properties": {
                "name": "Channel 4 Document Archive"
            }
        },
        {
            "type": "Feature",
            "geometry": {
                "type": "Point",
                "coordinates": [
                    -0.181434976,
                    51.48425239
                ]
            },
            "properties": {
                "name": "Chelsea and Westminster Hospital Archives"
            }
        },
        {
            "type": "Feature",
            "geometry": {
                "type": "Point",
                "coordinates": [
                    -0.129326046,
                    51.497938
                ]
            },
            "properties": {
                "name": "ChurchCare Library"
            }
        },
        {
            "type": "Feature",
            "geometry": {
                "type": "Point",
                "coordinates": [
                    -0.200159027,
                    51.49987443
                ]
            },
            "properties": {
                "name": "Commonwealth Institute"
            }
        },
        {
            "type": "Feature",
            "geometry": {
                "type": "Point",
                "coordinates": [
                    -0.102666646,
                    51.49529754
                ]
            },
            "properties": {
                "name": "DayCare Trust"
            }
        },
        {
            "type": "Feature",
            "geometry": {
                "type": "Point",
                "coordinates": [
                    -0.075887122,
                    51.51506783
                ]
            },
            "properties": {
                "name": "Employment Policy Institute"
            }
        },
        {
            "type": "Feature",
            "geometry": {
                "type": "Point",
                "coordinates": [
                    -0.122727011,
                    51.51792235
                ]
            },
            "properties": {
                "name": "General Conference of the New Church"
            }
        },
        {
            "type": "Feature",
            "geometry": {
                "type": "Point",
                "coordinates": [
                    -0.213626532,
                    51.49454912
                ]
            },
            "properties": {
                "name": "Harrods Archive"
            }
        },
        {
            "type": "Feature",
            "geometry": {
                "type": "Point",
                "coordinates": [
                    -0.106474468,
                    51.5330567
                ]
            },
            "properties": {
                "name": "National Council for Voluntary Youth Services"
            }
        },
        {
            "type": "Feature",
            "geometry": {
                "type": "Point",
                "coordinates": [
                    -0.101427729,
                    51.52925214
                ]
            },
            "properties": {
                "name": "National Council of Voluntary Child Care Organisation"
            }
        },
        {
            "type": "Feature",
            "geometry": {
                "type": "Point",
                "coordinates": [
                    -0.127384112,
                    51.52526291
                ]
            },
            "properties": {
                "name": "National Institute for Social Work"
            }
        },
        {
            "type": "Feature",
            "geometry": {
                "type": "Point",
                "coordinates": [
                    -0.119350731,
                    51.52884842
                ]
            },
            "properties": {
                "name": "National League of the Blind and Disabled"
            }
        },
        {
            "type": "Feature",
            "geometry": {
                "type": "Point",
                "coordinates": [
                    -0.137121112,
                    51.5184036
                ]
            },
            "properties": {
                "name": "Performing Right Society Archives"
            }
        },
        {
            "type": "Feature",
            "geometry": {
                "type": "Point",
                "coordinates": [
                    -0.12820152,
                    51.51060881
                ]
            },
            "properties": {
                "name": "The Theatres Trust Resource Centre"
            }
        },
        {
            "type": "Feature",
            "geometry": {
                "type": "Point",
                "coordinates": [
                    -0.136029812,
                    51.53523862
                ]
            },
            "properties": {
                "name": "Working Mens College"
            }
        },
        {
            "type": "Feature",
            "geometry": {
                "type": "Point",
                "coordinates": [
                    -0.108473109,
                    51.52727965
                ]
            },
            "properties": {
                "name": "Writers and Scholars Educational Trust (Index on Cens"
            }
        },
        {
            "type": "Feature",
            "geometry": {
                "type": "Point",
                "coordinates": [
                    -0.138631346,
                    51.5155547
                ]
            },
            "properties": {
                "name": "Photographers Gallery "
            }
        },
        {
            "type": "Feature",
            "geometry": {
                "type": "Point",
                "coordinates": [
                    -0.062835752,
                    51.48468217
                ]
            },
            "properties": {
                "name": "Action for Blind People"
            }
        },
        {
            "type": "Feature",
            "geometry": {
                "type": "Point",
                "coordinates": [
                    -0.135607243,
                    51.56568099
                ]
            },
            "properties": {
                "name": "ActionAid Central Archive"
            }
        },
        {
            "type": "Feature",
            "geometry": {
                "type": "Point",
                "coordinates": [
                    -0.135196816,
                    51.49670957
                ]
            },
            "properties": {
                "name": "Advertising Association"
            }
        },
        {
            "type": "Feature",
            "geometry": {
                "type": "Point",
                "coordinates": [
                    -0.120521531,
                    51.40683553
                ]
            },
            "properties": {
                "name": "Age Concern"
            }
        },
        {
            "type": "Feature",
            "geometry": {
                "type": "Point",
                "coordinates": [
                    -0.143601127,
                    51.51005319
                ]
            },
            "properties": {
                "name": "Agnew's"
            }
        },
        {
            "type": "Feature",
            "geometry": {
                "type": "Point",
                "coordinates": [
                    -0.132461109,
                    51.49984047
                ]
            },
            "properties": {
                "name": "Air League"
            }
        },
        {
            "type": "Feature",
            "geometry": {
                "type": "Point",
                "coordinates": [
                    -0.173544641,
                    51.51697102
                ]
            },
            "properties": {
                "name": "Alexander Fleming Laboratory Museum"
            }
        },
        {
            "type": "Feature",
            "geometry": {
                "type": "Point",
                "coordinates": [
                    -0.130501429,
                    51.59448347
                ]
            },
            "properties": {
                "name": "Alexandra Park and Palace Charitable Trust"
            }
        },
        {
            "type": "Feature",
            "geometry": {
                "type": "Point",
                "coordinates": [
                    -0.151342371,
                    51.5163984
                ]
            },
            "properties": {
                "name": "Alfred Dunhill Museum and Archive"
            }
        },
        {
            "type": "Feature",
            "geometry": {
                "type": "Point",
                "coordinates": [
                    -0.079184156,
                    51.50933062
                ]
            },
            "properties": {
                "name": "All Hallows by the Tower"
            }
        },
        {
            "type": "Feature",
            "geometry": {
                "type": "Point",
                "coordinates": [
                    -0.081993244,
                    51.45478129
                ]
            },
            "properties": {
                "name": "Alleyn's School Archive"
            }
        },
        {
            "type": "Feature",
            "geometry": {
                "type": "Point",
                "coordinates": [
                    -0.080662628,
                    51.52591939
                ]
            },
            "properties": {
                "name": "Alpine Club Archives"
            }
        },
        {
            "type": "Feature",
            "geometry": {
                "type": "Point",
                "coordinates": [
                    -0.111128528,
                    51.52582065
                ]
            },
            "properties": {
                "name": "Amnesty International, International Secretariat"
            }
        },
        {
            "type": "Feature",
            "geometry": {
                "type": "Point",
                "coordinates": [
                    -0.146629122,
                    51.52207935
                ]
            },
            "properties": {
                "name": "Anglo-Chilean Society"
            }
        },
        {
            "type": "Feature",
            "geometry": {
                "type": "Point",
                "coordinates": [
                    -0.160555743,
                    51.52489743
                ]
            },
            "properties": {
                "name": "Anthroposophical Society in Great Britain"
            }
        },
        {
            "type": "Feature",
            "geometry": {
                "type": "Point",
                "coordinates": [
                    -0.153270578,
                    51.51042165
                ]
            },
            "properties": {
                "name": "Arab-British Chamber of Commerce"
            }
        },
        {
            "type": "Feature",
            "geometry": {
                "type": "Point",
                "coordinates": [
                    -0.131018802,
                    51.51853136
                ]
            },
            "properties": {
                "name": "Architectural Association Archives"
            }
        },
        {
            "type": "Feature",
            "geometry": {
                "type": "Point",
                "coordinates": [
                    -0.194378265,
                    51.52664589
                ]
            },
            "properties": {
                "name": "Archives of the British Psychoanalytical Society"
            }
        },
        {
            "type": "Feature",
            "geometry": {
                "type": "Point",
                "coordinates": [
                    -0.150084306,
                    51.52147742
                ]
            },
            "properties": {
                "name": "Archives of the Royal Philatelic Society London"
            }
        },
        {
            "type": "Feature",
            "geometry": {
                "type": "Point",
                "coordinates": [
                    -0.193331863,
                    51.49955292
                ]
            },
            "properties": {
                "name": "Armenian Institute"
            }
        },
        {
            "type": "Feature",
            "geometry": {
                "type": "Point",
                "coordinates": [
                    -0.122987281,
                    51.5214067
                ]
            },
            "properties": {
                "name": "Art Workers Guild"
            }
        },
        {
            "type": "Feature",
            "geometry": {
                "type": "Point",
                "coordinates": [
                    -0.096863134,
                    51.53567982
                ]
            },
            "properties": {
                "name": "Association for the Conservation of Energy"
            }
        },
        {
            "type": "Feature",
            "geometry": {
                "type": "Point",
                "coordinates": [
                    -0.145109412,
                    51.51939349
                ]
            },
            "properties": {
                "name": "Association of Anaesthetists of Great Britain and Ire"
            }
        },
        {
            "type": "Feature",
            "geometry": {
                "type": "Point",
                "coordinates": [
                    -0.130886294,
                    51.50100242
                ]
            },
            "properties": {
                "name": "Association of Conservative Clubs Ltd"
            }
        },
        {
            "type": "Feature",
            "geometry": {
                "type": "Point",
                "coordinates": [
                    -0.126757514,
                    51.49557688
                ]
            },
            "properties": {
                "name": "Association of Directors of Adult Social Services"
            }
        },
        {
            "type": "Feature",
            "geometry": {
                "type": "Point",
                "coordinates": [
                    -0.132707924,
                    51.50684074
                ]
            },
            "properties": {
                "name": "Athenaeum"
            }
        },
        {
            "type": "Feature",
            "geometry": {
                "type": "Point",
                "coordinates": [
                    -0.08018605,
                    51.51497647
                ]
            },
            "properties": {
                "name": "Baltic Exchange"
            }
        },
        {
            "type": "Feature",
            "geometry": {
                "type": "Point",
                "coordinates": [
                    -0.088621829,
                    51.51418809
                ]
            },
            "properties": {
                "name": "Bank of England Archive"
            }
        },
        {
            "type": "Feature",
            "geometry": {
                "type": "Point",
                "coordinates": [
                    -0.100934689,
                    51.50819212
                ]
            },
            "properties": {
                "name": "Bankside Gallery"
            }
        },
        {
            "type": "Feature",
            "geometry": {
                "type": "Point",
                "coordinates": [
                    -0.094601756,
                    51.5180174
                ]
            },
            "properties": {
                "name": "Barbers Company"
            }
        },
        {
            "type": "Feature",
            "geometry": {
                "type": "Point",
                "coordinates": [
                    -0.089226292,
                    51.51551699
                ]
            },
            "properties": {
                "name": "Baring Archive"
            }
        },
        {
            "type": "Feature",
            "geometry": {
                "type": "Point",
                "coordinates": [
                    -0.228932832,
                    51.58859385
                ]
            },
            "properties": {
                "name": "Barnet Local Studies and Archives"
            }
        },
        {
            "type": "Feature",
            "geometry": {
                "type": "Point",
                "coordinates": [
                    -0.202296261,
                    51.65287654
                ]
            },
            "properties": {
                "name": "Barnet Museum"
            }
        },
        {
            "type": "Feature",
            "geometry": {
                "type": "Point",
                "coordinates": [
                    -0.185367081,
                    51.5375408
                ]
            },
            "properties": {
                "name": "Ben Uri Art Society and Gallery"
            }
        },
        {
            "type": "Feature",
            "geometry": {
                "type": "Point",
                "coordinates": [
                    0.143775809,
                    51.45599566
                ]
            },
            "properties": {
                "name": "Bexley Local Studies and Archive Centre"
            }
        },
        {
            "type": "Feature",
            "geometry": {
                "type": "Point",
                "coordinates": [
                    -0.026960722,
                    51.46925434
                ]
            },
            "properties": {
                "name": "Bible Churchmens Missionary Society"
            }
        },
        {
            "type": "Feature",
            "geometry": {
                "type": "Point",
                "coordinates": [
                    -0.079250559,
                    51.5187111
                ]
            },
            "properties": {
                "name": "Bishopsgate Institute"
            }
        },
        {
            "type": "Feature",
            "geometry": {
                "type": "Point",
                "coordinates": [
                    -0.114572316,
                    51.46051638
                ]
            },
            "properties": {
                "name": "Black Cultural Archives"
            }
        },
        {
            "type": "Feature",
            "geometry": {
                "type": "Point",
                "coordinates": [
                    -0.164755341,
                    51.52012515
                ]
            },
            "properties": {
                "name": "Blind Veterans UK"
            }
        },
        {
            "type": "Feature",
            "geometry": {
                "type": "Point",
                "coordinates": [
                    -0.184048133,
                    51.45797137
                ]
            },
            "properties": {
                "name": "Book Trust"
            }
        },
        {
            "type": "Feature",
            "geometry": {
                "type": "Point",
                "coordinates": [
                    -0.228921501,
                    51.5466504
                ]
            },
            "properties": {
                "name": "Brent Museum and Archives"
            }
        },
        {
            "type": "Feature",
            "geometry": {
                "type": "Point",
                "coordinates": [
                    -0.131243765,
                    51.5063498
                ]
            },
            "properties": {
                "name": "British Academy"
            }
        },
        {
            "type": "Feature",
            "geometry": {
                "type": "Point",
                "coordinates": [
                    -0.127997054,
                    51.51208035
                ]
            },
            "properties": {
                "name": "British Actors' Equity Association"
            }
        },
        {
            "type": "Feature",
            "geometry": {
                "type": "Point",
                "coordinates": [
                    -0.487020906,
                    51.48549094
                ]
            },
            "properties": {
                "name": "British Airways Heritage Collection"
            }
        },
        {
            "type": "Feature",
            "geometry": {
                "type": "Point",
                "coordinates": [
                    -0.133181828,
                    51.51533741
                ]
            },
            "properties": {
                "name": "British Board of Film Classification"
            }
        },
        {
            "type": "Feature",
            "geometry": {
                "type": "Point",
                "coordinates": [
                    -0.129718478,
                    51.50699994
                ]
            },
            "properties": {
                "name": "British Council"
            }
        },
        {
            "type": "Feature",
            "geometry": {
                "type": "Point",
                "coordinates": [
                    -0.086551737,
                    51.5223107
                ]
            },
            "properties": {
                "name": "British Deaf Association"
            }
        },
        {
            "type": "Feature",
            "geometry": {
                "type": "Point",
                "coordinates": [
                    -0.148616377,
                    51.5185766
                ]
            },
            "properties": {
                "name": "British Dental Association Museum"
            }
        },
        {
            "type": "Feature",
            "geometry": {
                "type": "Point",
                "coordinates": [
                    -0.132920441,
                    51.51785121
                ]
            },
            "properties": {
                "name": "British Film Institute (BFI) National Archive"
            }
        },
        {
            "type": "Feature",
            "geometry": {
                "type": "Point",
                "coordinates": [
                    -0.115937366,
                    51.5069462
                ]
            },
            "properties": {
                "name": "British Film Institute, Special Collections"
            }
        },
        {
            "type": "Feature",
            "geometry": {
                "type": "Point",
                "coordinates": [
                    -0.139592511,
                    51.53344266
                ]
            },
            "properties": {
                "name": "British Heart Foundation"
            }
        },
        {
            "type": "Feature",
            "geometry": {
                "type": "Point",
                "coordinates": [
                    -0.130116644,
                    51.51979395
                ]
            },
            "properties": {
                "name": "British Humanist Association"
            }
        },
        {
            "type": "Feature",
            "geometry": {
                "type": "Point",
                "coordinates": [
                    -0.144507634,
                    51.52001346
                ]
            },
            "properties": {
                "name": "British Institute of Radiology"
            }
        },
        {
            "type": "Feature",
            "geometry": {
                "type": "Point",
                "coordinates": [
                    -0.126988356,
                    51.52998677
                ]
            },
            "properties": {
                "name": "British Library Corporate Archives"
            }
        },
        {
            "type": "Feature",
            "geometry": {
                "type": "Point",
                "coordinates": [
                    -0.126988356,
                    51.52998677
                ]
            },
            "properties": {
                "name": "British Library, Manuscript Collections/Map Library/M"
            }
        },
        {
            "type": "Feature",
            "geometry": {
                "type": "Point",
                "coordinates": [
                    -0.126847821,
                    51.51936411
                ]
            },
            "properties": {
                "name": "British Museum Central Archive, Ethnography Library, "
            }
        },
        {
            "type": "Feature",
            "geometry": {
                "type": "Point",
                "coordinates": [
                    -0.136117275,
                    51.52004232
                ]
            },
            "properties": {
                "name": "British Olympic Association"
            }
        },
        {
            "type": "Feature",
            "geometry": {
                "type": "Point",
                "coordinates": [
                    -0.082722063,
                    51.52631281
                ]
            },
            "properties": {
                "name": "British Plastics Federation"
            }
        },
        {
            "type": "Feature",
            "geometry": {
                "type": "Point",
                "coordinates": [
                    -0.1059,
                    51.51998
                ]
            },
            "properties": {
                "name": "British Printing Industries Federation"
            }
        },
        {
            "type": "Feature",
            "geometry": {
                "type": "Point",
                "coordinates": [
                    -0.086082254,
                    51.52319332
                ]
            },
            "properties": {
                "name": "British Psychological Society: History of Psychology "
            }
        },
        {
            "type": "Feature",
            "geometry": {
                "type": "Point",
                "coordinates": [
                    -0.08858643,
                    51.51908359
                ]
            },
            "properties": {
                "name": "British Red Cross Museum and Archives"
            }
        },
        {
            "type": "Feature",
            "geometry": {
                "type": "Point",
                "coordinates": [
                    -0.131807714,
                    51.50031567
                ]
            },
            "properties": {
                "name": "British Retail Consortium"
            }
        },
        {
            "type": "Feature",
            "geometry": {
                "type": "Point",
                "coordinates": [
                    -0.094312879,
                    51.50008115
                ]
            },
            "properties": {
                "name": "British School of Osteopathy"
            }
        },
        {
            "type": "Feature",
            "geometry": {
                "type": "Point",
                "coordinates": [
                    -0.137304849,
                    51.51637417
                ]
            },
            "properties": {
                "name": "British Universities Film and Video Council"
            }
        },
        {
            "type": "Feature",
            "geometry": {
                "type": "Point",
                "coordinates": [
                    -0.146220252,
                    51.51901537
                ]
            },
            "properties": {
                "name": "British Veterinary Association"
            }
        },
        {
            "type": "Feature",
            "geometry": {
                "type": "Point",
                "coordinates": [
                    -0.151890056,
                    51.49860148
                ]
            },
            "properties": {
                "name": "British-German Association"
            }
        },
        {
            "type": "Feature",
            "geometry": {
                "type": "Point",
                "coordinates": [
                    -0.11800416,
                    51.61844628
                ]
            },
            "properties": {
                "name": "Broomfield House Museum"
            }
        },
        {
            "type": "Feature",
            "geometry": {
                "type": "Point",
                "coordinates": [
                    -0.471007019,
                    51.53662881
                ]
            },
            "properties": {
                "name": "Brunel University Archives"
            }
        },
        {
            "type": "Feature",
            "geometry": {
                "type": "Point",
                "coordinates": [
                    -0.472835336,
                    51.53283992
                ]
            },
            "properties": {
                "name": "Brunel University Library"
            }
        },
        {
            "type": "Feature",
            "geometry": {
                "type": "Point",
                "coordinates": [
                    -0.116758156,
                    51.51761085
                ]
            },
            "properties": {
                "name": "BT Archives"
            }
        },
        {
            "type": "Feature",
            "geometry": {
                "type": "Point",
                "coordinates": [
                    -0.118583158,
                    51.51389915
                ]
            },
            "properties": {
                "name": "Building Societies Association"
            }
        },
        {
            "type": "Feature",
            "geometry": {
                "type": "Point",
                "coordinates": [
                    -0.1096323,
                    51.51377693
                ]
            },
            "properties": {
                "name": "C Hoare & Co"
            }
        },
        {
            "type": "Feature",
            "geometry": {
                "type": "Point",
                "coordinates": [
                    -0.115702644,
                    51.52118201
                ]
            },
            "properties": {
                "name": "Camden Local Studies and Archives Centre"
            }
        },
        {
            "type": "Feature",
            "geometry": {
                "type": "Point",
                "coordinates": [
                    -0.121373486,
                    51.52174058
                ]
            },
            "properties": {
                "name": "CAMLIS (Complimentary and Alternative Medicine Librar"
            }
        },
        {
            "type": "Feature",
            "geometry": {
                "type": "Point",
                "coordinates": [
                    -0.096152741,
                    51.5319723
                ]
            },
            "properties": {
                "name": "Campaign for Better Transport "
            }
        },
        {
            "type": "Feature",
            "geometry": {
                "type": "Point",
                "coordinates": [
                    -0.154398373,
                    51.5003496
                ]
            },
            "properties": {
                "name": "Canning House Library"
            }
        },
        {
            "type": "Feature",
            "geometry": {
                "type": "Point",
                "coordinates": [
                    -0.085936685,
                    51.51669821
                ]
            },
            "properties": {
                "name": "Carpenters Company"
            }
        },
        {
            "type": "Feature",
            "geometry": {
                "type": "Point",
                "coordinates": [
                    -0.144765532,
                    51.49106651
                ]
            },
            "properties": {
                "name": "Catholic Bishops' Conference of England and Wales"
            }
        },
        {
            "type": "Feature",
            "geometry": {
                "type": "Point",
                "coordinates": [
                    -0.144765532,
                    51.49106651
                ]
            },
            "properties": {
                "name": "Catholic Education Service"
            }
        },
        {
            "type": "Feature",
            "geometry": {
                "type": "Point",
                "coordinates": [
                    -0.120552493,
                    51.48531584
                ]
            },
            "properties": {
                "name": "Catholic Truth Society"
            }
        },
        {
            "type": "Feature",
            "geometry": {
                "type": "Point",
                "coordinates": [
                    -0.248918069,
                    51.50441554
                ]
            },
            "properties": {
                "name": "Catholic Union of Great Britain"
            }
        },
        {
            "type": "Feature",
            "geometry": {
                "type": "Point",
                "coordinates": [
                    -0.139043655,
                    51.49918072
                ]
            },
            "properties": {
                "name": "Cayzer Family Archive"
            }
        },
        {
            "type": "Feature",
            "geometry": {
                "type": "Point",
                "coordinates": [
                    -0.174179507,
                    51.54432753
                ]
            },
            "properties": {
                "name": "Central School of Speech and Drama"
            }
        },
        {
            "type": "Feature",
            "geometry": {
                "type": "Point",
                "coordinates": [
                    -0.116237045,
                    51.52360065
                ]
            },
            "properties": {
                "name": "Charles Dickens Museum"
            }
        },
        {
            "type": "Feature",
            "geometry": {
                "type": "Point",
                "coordinates": [
                    -0.110328375,
                    51.51520531
                ]
            },
            "properties": {
                "name": "Chartered Insitute of Taxation"
            }
        },
        {
            "type": "Feature",
            "geometry": {
                "type": "Point",
                "coordinates": [
                    -0.051027719,
                    51.49677063
                ]
            },
            "properties": {
                "name": "Chartered Institute of Journalists"
            }
        },
        {
            "type": "Feature",
            "geometry": {
                "type": "Point",
                "coordinates": [
                    -0.131421658,
                    51.52030934
                ]
            },
            "properties": {
                "name": "Chartered Institute of Library and Information Profes"
            }
        },
        {
            "type": "Feature",
            "geometry": {
                "type": "Point",
                "coordinates": [
                    -0.122671958,
                    51.50874887
                ]
            },
            "properties": {
                "name": "Chartered Institute of Public Finance and Accountancy"
            }
        },
        {
            "type": "Feature",
            "geometry": {
                "type": "Point",
                "coordinates": [
                    0.022654036,
                    51.59393333
                ]
            },
            "properties": {
                "name": "Chartered Insurance Institute"
            }
        },
        {
            "type": "Feature",
            "geometry": {
                "type": "Point",
                "coordinates": [
                    -0.168170333,
                    51.48747216
                ]
            },
            "properties": {
                "name": "Chelsea Library"
            }
        },
        {
            "type": "Feature",
            "geometry": {
                "type": "Point",
                "coordinates": [
                    -0.162251549,
                    51.48457384
                ]
            },
            "properties": {
                "name": "Chelsea Physic Garden"
            }
        },
        {
            "type": "Feature",
            "geometry": {
                "type": "Point",
                "coordinates": [
                    -0.126188277,
                    51.49575664
                ]
            },
            "properties": {
                "name": "Chemical Industries Association"
            }
        },
        {
            "type": "Feature",
            "geometry": {
                "type": "Point",
                "coordinates": [
                    -0.03949,
                    51.53319
                ]
            },
            "properties": {
                "name": "Chisenhale Gallery"
            }
        },
        {
            "type": "Feature",
            "geometry": {
                "type": "Point",
                "coordinates": [
                    -0.261085466,
                    51.49169574
                ]
            },
            "properties": {
                "name": "Chiswick Library Local Studies Service"
            }
        },
        {
            "type": "Feature",
            "geometry": {
                "type": "Point",
                "coordinates": [
                    -0.094991154,
                    51.52353627
                ]
            },
            "properties": {
                "name": "Church Times"
            }
        },
        {
            "type": "Feature",
            "geometry": {
                "type": "Point",
                "coordinates": [
                    -0.105168913,
                    51.49228045
                ]
            },
            "properties": {
                "name": "Cinema Museum, Ronald Grant Archive"
            }
        },
        {
            "type": "Feature",
            "geometry": {
                "type": "Point",
                "coordinates": [
                    -0.08468246,
                    51.5149871
                ]
            },
            "properties": {
                "name": "City of London Club"
            }
        },
        {
            "type": "Feature",
            "geometry": {
                "type": "Point",
                "coordinates": [
                    -0.093749855,
                    51.51667263
                ]
            },
            "properties": {
                "name": "City of London Police Museum"
            }
        },
        {
            "type": "Feature",
            "geometry": {
                "type": "Point",
                "coordinates": [
                    -0.099361206,
                    51.51102633
                ]
            },
            "properties": {
                "name": "City of London School"
            }
        },
        {
            "type": "Feature",
            "geometry": {
                "type": "Point",
                "coordinates": [
                    -0.130148527,
                    51.49755544
                ]
            },
            "properties": {
                "name": "City of Westminster Archives Centre"
            }
        },
        {
            "type": "Feature",
            "geometry": {
                "type": "Point",
                "coordinates": [
                    -0.102587756,
                    51.52770618
                ]
            },
            "properties": {
                "name": "City, University of London"
            }
        },
        {
            "type": "Feature",
            "geometry": {
                "type": "Point",
                "coordinates": [
                    -0.130148252,
                    51.50671003
                ]
            },
            "properties": {
                "name": "Civic Trust"
            }
        },
        {
            "type": "Feature",
            "geometry": {
                "type": "Point",
                "coordinates": [
                    -0.081138094,
                    51.51152987
                ]
            },
            "properties": {
                "name": "Clothworkers Company"
            }
        },
        {
            "type": "Feature",
            "geometry": {
                "type": "Point",
                "coordinates": [
                    -0.098676614,
                    51.51223825
                ]
            },
            "properties": {
                "name": "College of Arms"
            }
        },
        {
            "type": "Feature",
            "geometry": {
                "type": "Point",
                "coordinates": [
                    -0.126390616,
                    51.49644332
                ]
            },
            "properties": {
                "name": "Commonwealth Parliamentary Association"
            }
        },
        {
            "type": "Feature",
            "geometry": {
                "type": "Point",
                "coordinates": [
                    -0.135961714,
                    51.50514791
                ]
            },
            "properties": {
                "name": "Commonwealth Secretariat"
            }
        },
        {
            "type": "Feature",
            "geometry": {
                "type": "Point",
                "coordinates": [
                    -0.11818378,
                    51.53092502
                ]
            },
            "properties": {
                "name": "Community Service Volunteers"
            }
        },
        {
            "type": "Feature",
            "geometry": {
                "type": "Point",
                "coordinates": [
                    -0.105691744,
                    51.49843095
                ]
            },
            "properties": {
                "name": "Confederation of Indian Organisations (UK)"
            }
        },
        {
            "type": "Feature",
            "geometry": {
                "type": "Point",
                "coordinates": [
                    -0.131561459,
                    51.52393564
                ]
            },
            "properties": {
                "name": "Congregational Library"
            }
        },
        {
            "type": "Feature",
            "geometry": {
                "type": "Point",
                "coordinates": [
                    -0.125923818,
                    51.49272186
                ]
            },
            "properties": {
                "name": "Conservative Christian Fellowship"
            }
        },
        {
            "type": "Feature",
            "geometry": {
                "type": "Point",
                "coordinates": [
                    -0.132588528,
                    51.49813388
                ]
            },
            "properties": {
                "name": "Conservative Party Research Department"
            }
        },
        {
            "type": "Feature",
            "geometry": {
                "type": "Point",
                "coordinates": [
                    -0.085987748,
                    51.50207687
                ]
            },
            "properties": {
                "name": "Co-operative Party"
            }
        },
        {
            "type": "Feature",
            "geometry": {
                "type": "Point",
                "coordinates": [
                    -0.102733663,
                    51.52003774
                ]
            },
            "properties": {
                "name": "Corps of Commissionaires (Corps Security)"
            }
        },
        {
            "type": "Feature",
            "geometry": {
                "type": "Point",
                "coordinates": [
                    -0.108053774,
                    51.51514167
                ]
            },
            "properties": {
                "name": "Council for the Advancement of Arab-British Understan"
            }
        },
        {
            "type": "Feature",
            "geometry": {
                "type": "Point",
                "coordinates": [
                    -0.111128096,
                    51.48681908
                ]
            },
            "properties": {
                "name": "Countryside Alliance"
            }
        },
        {
            "type": "Feature",
            "geometry": {
                "type": "Point",
                "coordinates": [
                    -0.124992068,
                    51.50910072
                ]
            },
            "properties": {
                "name": "Coutts & Co"
            }
        },
        {
            "type": "Feature",
            "geometry": {
                "type": "Point",
                "coordinates": [
                    -0.073885005,
                    51.51811045
                ]
            },
            "properties": {
                "name": "Crisis"
            }
        },
        {
            "type": "Feature",
            "geometry": {
                "type": "Point",
                "coordinates": [
                    -0.15587,
                    51.52343
                ]
            },
            "properties": {
                "name": "Dairy Industry Federation"
            }
        },
        {
            "type": "Feature",
            "geometry": {
                "type": "Point",
                "coordinates": [
                    -0.200476777,
                    51.45713641
                ]
            },
            "properties": {
                "name": "De Morgan Centre"
            }
        },
        {
            "type": "Feature",
            "geometry": {
                "type": "Point",
                "coordinates": [
                    -0.11087226,
                    51.48847861
                ]
            },
            "properties": {
                "name": "D'Oyly Carte Opera Company"
            }
        },
        {
            "type": "Feature",
            "geometry": {
                "type": "Point",
                "coordinates": [
                    -0.108159067,
                    51.51503546
                ]
            },
            "properties": {
                "name": "Dr Johnson's House"
            }
        },
        {
            "type": "Feature",
            "geometry": {
                "type": "Point",
                "coordinates": [
                    -0.131561459,
                    51.52393564
                ]
            },
            "properties": {
                "name": "Dr Williams's Library"
            }
        },
        {
            "type": "Feature",
            "geometry": {
                "type": "Point",
                "coordinates": [
                    -0.0863582,
                    51.51523928
                ]
            },
            "properties": {
                "name": "Drapers' Company"
            }
        },
        {
            "type": "Feature",
            "geometry": {
                "type": "Point",
                "coordinates": [
                    -0.141116576,
                    51.49993301
                ]
            },
            "properties": {
                "name": "Duchy of Cornwall Office"
            }
        },
        {
            "type": "Feature",
            "geometry": {
                "type": "Point",
                "coordinates": [
                    -0.118579941,
                    51.51013113
                ]
            },
            "properties": {
                "name": "Duchy of Lancaster Office"
            }
        },
        {
            "type": "Feature",
            "geometry": {
                "type": "Point",
                "coordinates": [
                    -0.085018121,
                    51.44028029
                ]
            },
            "properties": {
                "name": "Dulwich College Archive"
            }
        },
        {
            "type": "Feature",
            "geometry": {
                "type": "Point",
                "coordinates": [
                    -0.086420365,
                    51.4459777
                ]
            },
            "properties": {
                "name": "Dulwich Picture Gallery"
            }
        },
        {
            "type": "Feature",
            "geometry": {
                "type": "Point",
                "coordinates": [
                    -0.302370117,
                    51.51233212
                ]
            },
            "properties": {
                "name": "Ealing Local History Centre"
            }
        },
        {
            "type": "Feature",
            "geometry": {
                "type": "Point",
                "coordinates": [
                    -0.065552047,
                    51.51746961
                ]
            },
            "properties": {
                "name": "East London Mosque & London Muslim Centre Archive"
            }
        },
        {
            "type": "Feature",
            "geometry": {
                "type": "Point",
                "coordinates": [
                    -0.116947449,
                    51.52315343
                ]
            },
            "properties": {
                "name": "Egypt Exploration Society"
            }
        },
        {
            "type": "Feature",
            "geometry": {
                "type": "Point",
                "coordinates": [
                    -0.196840681,
                    51.50045223
                ]
            },
            "properties": {
                "name": "Eighteen Stafford Terrace: Sambourne Family Archive"
            }
        },
        {
            "type": "Feature",
            "geometry": {
                "type": "Point",
                "coordinates": [
                    -0.102919768,
                    51.50515771
                ]
            },
            "properties": {
                "name": "Electoral Reform Society of Great Britain and Ireland"
            }
        },
        {
            "type": "Feature",
            "geometry": {
                "type": "Point",
                "coordinates": [
                    -0.192055219,
                    51.51178125
                ]
            },
            "properties": {
                "name": "Electrical Contractors' Association"
            }
        },
        {
            "type": "Feature",
            "geometry": {
                "type": "Point",
                "coordinates": [
                    -0.173290163,
                    51.45665326
                ]
            },
            "properties": {
                "name": "Emanuel School"
            }
        },
        {
            "type": "Feature",
            "geometry": {
                "type": "Point",
                "coordinates": [
                    -0.430243685,
                    51.5081604
                ]
            },
            "properties": {
                "name": "EMI Group Archive Trust"
            }
        },
        {
            "type": "Feature",
            "geometry": {
                "type": "Point",
                "coordinates": [
                    -0.081118167,
                    51.65031766
                ]
            },
            "properties": {
                "name": "Enfield Local Studies Library and Archive"
            }
        },
        {
            "type": "Feature",
            "geometry": {
                "type": "Point",
                "coordinates": [
                    -0.149337866,
                    51.53810212
                ]
            },
            "properties": {
                "name": "English Folk Dance and Song Society: Vaughan Williams"
            }
        },
        {
            "type": "Feature",
            "geometry": {
                "type": "Point",
                "coordinates": [
                    -0.17866026,
                    51.50074685
                ]
            },
            "properties": {
                "name": "English National Ballet Archives"
            }
        },
        {
            "type": "Feature",
            "geometry": {
                "type": "Point",
                "coordinates": [
                    -0.190460152,
                    51.54618942
                ]
            },
            "properties": {
                "name": "English National Opera Archive"
            }
        },
        {
            "type": "Feature",
            "geometry": {
                "type": "Point",
                "coordinates": [
                    -0.146788412,
                    51.50786441
                ]
            },
            "properties": {
                "name": "English-Speaking Union of the Commonwealth"
            }
        },
        {
            "type": "Feature",
            "geometry": {
                "type": "Point",
                "coordinates": [
                    -0.11986521,
                    51.49222021
                ]
            },
            "properties": {
                "name": "European Movement"
            }
        },
        {
            "type": "Feature",
            "geometry": {
                "type": "Point",
                "coordinates": [
                    -0.119746587,
                    51.53708312
                ]
            },
            "properties": {
                "name": "Evangelical Alliance"
            }
        },
        {
            "type": "Feature",
            "geometry": {
                "type": "Point",
                "coordinates": [
                    -0.13437207,
                    51.60960732
                ]
            },
            "properties": {
                "name": "Evangelical Library"
            }
        },
        {
            "type": "Feature",
            "geometry": {
                "type": "Point",
                "coordinates": [
                    -0.12425903,
                    51.51922382
                ]
            },
            "properties": {
                "name": "Faber Archive"
            }
        },
        {
            "type": "Feature",
            "geometry": {
                "type": "Point",
                "coordinates": [
                    -0.13015,
                    51.50671
                ]
            },
            "properties": {
                "name": "Federation of British Artists"
            }
        },
        {
            "type": "Feature",
            "geometry": {
                "type": "Point",
                "coordinates": [
                    -0.11684,
                    51.5216858
                ]
            },
            "properties": {
                "name": "Federation of Master Builders"
            }
        },
        {
            "type": "Feature",
            "geometry": {
                "type": "Point",
                "coordinates": [
                    -0.1219,
                    51.53442884
                ]
            },
            "properties": {
                "name": "Fields in Trust (formerly the National Playing Fields"
            }
        },
        {
            "type": "Feature",
            "geometry": {
                "type": "Point",
                "coordinates": [
                    -0.11846,
                    51.51371733
                ]
            },
            "properties": {
                "name": "Finance and Leasing Association"
            }
        },
        {
            "type": "Feature",
            "geometry": {
                "type": "Point",
                "coordinates": [
                    -0.087541437,
                    51.50935936
                ]
            },
            "properties": {
                "name": "Fishmongers Company"
            }
        },
        {
            "type": "Feature",
            "geometry": {
                "type": "Point",
                "coordinates": [
                    -0.13326858,
                    51.5248441
                ]
            },
            "properties": {
                "name": "Folklore Society Archives"
            }
        },
        {
            "type": "Feature",
            "geometry": {
                "type": "Point",
                "coordinates": [
                    -0.12003022,
                    51.51270833
                ]
            },
            "properties": {
                "name": "Food and Drink Federation"
            }
        },
        {
            "type": "Feature",
            "geometry": {
                "type": "Point",
                "coordinates": [
                    -0.13112801,
                    51.51516082
                ]
            },
            "properties": {
                "name": "Football Association"
            }
        },
        {
            "type": "Feature",
            "geometry": {
                "type": "Point",
                "coordinates": [
                    -0.110328375,
                    51.51520531
                ]
            },
            "properties": {
                "name": "Foster + Partners"
            }
        },
        {
            "type": "Feature",
            "geometry": {
                "type": "Point",
                "coordinates": [
                    -0.168381317,
                    51.48076694
                ]
            },
            "properties": {
                "name": "Foyle Special Collections Library/ Foreign and Common"
            }
        },
        {
            "type": "Feature",
            "geometry": {
                "type": "Point",
                "coordinates": [
                    0.024906099,
                    51.53951262
                ]
            },
            "properties": {
                "name": "Franciscan Archives English Province"
            }
        },
        {
            "type": "Feature",
            "geometry": {
                "type": "Point",
                "coordinates": [
                    -0.163379903,
                    51.47225363
                ]
            },
            "properties": {
                "name": "Franco-British Society"
            }
        },
        {
            "type": "Feature",
            "geometry": {
                "type": "Point",
                "coordinates": [
                    -0.133133904,
                    51.51580427
                ]
            },
            "properties": {
                "name": "French Protestant Church"
            }
        },
        {
            "type": "Feature",
            "geometry": {
                "type": "Point",
                "coordinates": [
                    -0.177246355,
                    51.54842189
                ]
            },
            "properties": {
                "name": "Freud Museum"
            }
        },
        {
            "type": "Feature",
            "geometry": {
                "type": "Point",
                "coordinates": [
                    0.024906099,
                    51.53951262
                ]
            },
            "properties": {
                "name": "Friars Minor, English Province Archives"
            }
        },
        {
            "type": "Feature",
            "geometry": {
                "type": "Point",
                "coordinates": [
                    -0.144042224,
                    51.53747892
                ]
            },
            "properties": {
                "name": "Friends of the Hebrew University of Jerusalem"
            }
        },
        {
            "type": "Feature",
            "geometry": {
                "type": "Point",
                "coordinates": [
                    -0.12019536,
                    51.49504923
                ]
            },
            "properties": {
                "name": "Garden Museum Archives"
            }
        },
        {
            "type": "Feature",
            "geometry": {
                "type": "Point",
                "coordinates": [
                    -0.126241768,
                    51.51130593
                ]
            },
            "properties": {
                "name": "Garrick Club Library"
            }
        },
        {
            "type": "Feature",
            "geometry": {
                "type": "Point",
                "coordinates": [
                    -0.076244067,
                    51.53155722
                ]
            },
            "properties": {
                "name": "Museum of the Home (formerly Geffrye Museum) "
            }
        },
        {
            "type": "Feature",
            "geometry": {
                "type": "Point",
                "coordinates": [
                    -0.148754417,
                    51.51979279
                ]
            },
            "properties": {
                "name": "General Dental Council"
            }
        },
        {
            "type": "Feature",
            "geometry": {
                "type": "Point",
                "coordinates": [
                    -0.139576037,
                    51.50909914
                ]
            },
            "properties": {
                "name": "Geological Society of London"
            }
        },
        {
            "type": "Feature",
            "geometry": {
                "type": "Point",
                "coordinates": [
                    -0.139576037,
                    51.50909914
                ]
            },
            "properties": {
                "name": "Geologists Association"
            }
        },
        {
            "type": "Feature",
            "geometry": {
                "type": "Point",
                "coordinates": [
                    -0.109447471,
                    51.56813088
                ]
            },
            "properties": {
                "name": "George Padmore Institute"
            }
        },
        {
            "type": "Feature",
            "geometry": {
                "type": "Point",
                "coordinates": [
                    -0.123969462,
                    51.51890444
                ]
            },
            "properties": {
                "name": "German Historical Institute London"
            }
        },
        {
            "type": "Feature",
            "geometry": {
                "type": "Point",
                "coordinates": [
                    -0.14774652,
                    51.51195324
                ]
            },
            "properties": {
                "name": "Gimpel Fils"
            }
        },
        {
            "type": "Feature",
            "geometry": {
                "type": "Point",
                "coordinates": [
                    -0.143008591,
                    51.49875796
                ]
            },
            "properties": {
                "name": "Girlguiding UK"
            }
        },
        {
            "type": "Feature",
            "geometry": {
                "type": "Point",
                "coordinates": [
                    -0.315612974,
                    51.48869905
                ]
            },
            "properties": {
                "name": "GlaxoSmithKline Heritage Archives"
            }
        },
        {
            "type": "Feature",
            "geometry": {
                "type": "Point",
                "coordinates": [
                    -0.095771311,
                    51.51589613
                ]
            },
            "properties": {
                "name": "Goldsmiths Company"
            }
        },
        {
            "type": "Feature",
            "geometry": {
                "type": "Point",
                "coordinates": [
                    -0.155160323,
                    51.49860801
                ]
            },
            "properties": {
                "name": "Great Britain - China Centre"
            }
        },
        {
            "type": "Feature",
            "geometry": {
                "type": "Point",
                "coordinates": [
                    -0.11989817,
                    51.52221155
                ]
            },
            "properties": {
                "name": "Great Ormond Street Hospital Archives"
            }
        },
        {
            "type": "Feature",
            "geometry": {
                "type": "Point",
                "coordinates": [
                    -0.142160353,
                    51.49269242
                ]
            },
            "properties": {
                "name": "Green Alliance"
            }
        },
        {
            "type": "Feature",
            "geometry": {
                "type": "Point",
                "coordinates": [
                    0.069422401,
                    51.49430805
                ]
            },
            "properties": {
                "name": "Greenwich Heritage Centre"
            }
        },
        {
            "type": "Feature",
            "geometry": {
                "type": "Point",
                "coordinates": [
                    -0.137642078,
                    51.4999858
                ]
            },
            "properties": {
                "name": "Grenadier Guards Regimental Archives"
            }
        },
        {
            "type": "Feature",
            "geometry": {
                "type": "Point",
                "coordinates": [
                    -0.121548397,
                    51.53499869
                ]
            },
            "properties": {
                "name": "Guardian News & Media Archive (formerly the Newsroom)"
            }
        },
        {
            "type": "Feature",
            "geometry": {
                "type": "Point",
                "coordinates": [
                    -0.107528493,
                    51.52537595
                ]
            },
            "properties": {
                "name": "Guildhall Library Manuscripts Section"
            }
        },
        {
            "type": "Feature",
            "geometry": {
                "type": "Point",
                "coordinates": [
                    -0.286321449,
                    51.49954349
                ]
            },
            "properties": {
                "name": "Gunnersbury Park Museum"
            }
        },
        {
            "type": "Feature",
            "geometry": {
                "type": "Point",
                "coordinates": [
                    -0.042722194,
                    51.46768411
                ]
            },
            "properties": {
                "name": "Haberdashers' Aske's Federation Trust: Hatcham Colleg"
            }
        },
        {
            "type": "Feature",
            "geometry": {
                "type": "Point",
                "coordinates": [
                    -0.07417,
                    51.54613
                ]
            },
            "properties": {
                "name": "Hackney Archives"
            }
        },
        {
            "type": "Feature",
            "geometry": {
                "type": "Point",
                "coordinates": [
                    -0.082795826,
                    51.5616189
                ]
            },
            "properties": {
                "name": "Hackney Public Libraries, Stoke Newington District Li"
            }
        },
        {
            "type": "Feature",
            "geometry": {
                "type": "Point",
                "coordinates": [
                    -0.223666292,
                    51.49458469
                ]
            },
            "properties": {
                "name": "Hammersmith and Fulham Archives and Local History Cen"
            }
        },
        {
            "type": "Feature",
            "geometry": {
                "type": "Point",
                "coordinates": [
                    -0.175067341,
                    51.5581809
                ]
            },
            "properties": {
                "name": "Hampstead Museum"
            }
        },
        {
            "type": "Feature",
            "geometry": {
                "type": "Point",
                "coordinates": [
                    -0.145903845,
                    51.51296728
                ]
            },
            "properties": {
                "name": "Handel House Trust"
            }
        },
        {
            "type": "Feature",
            "geometry": {
                "type": "Point",
                "coordinates": [
                    -0.075440905,
                    51.5991501
                ]
            },
            "properties": {
                "name": "Haringey Archive Service"
            }
        },
        {
            "type": "Feature",
            "geometry": {
                "type": "Point",
                "coordinates": [
                    -0.352613082,
                    51.59406082
                ]
            },
            "properties": {
                "name": "Harrow Local History Collection"
            }
        },
        {
            "type": "Feature",
            "geometry": {
                "type": "Point",
                "coordinates": [
                    -0.337383023,
                    51.57228208
                ]
            },
            "properties": {
                "name": "Harrow School Archives"
            }
        },
        {
            "type": "Feature",
            "geometry": {
                "type": "Point",
                "coordinates": [
                    -0.115444817,
                    51.50613299
                ]
            },
            "properties": {
                "name": "Hayward Gallery Library and Archives"
            }
        },
        {
            "type": "Feature",
            "geometry": {
                "type": "Point",
                "coordinates": [
                    -0.146797338,
                    51.56691029
                ]
            },
            "properties": {
                "name": "Highgate Cemetery"
            }
        },
        {
            "type": "Feature",
            "geometry": {
                "type": "Point",
                "coordinates": [
                    -0.14839595,
                    51.57018179
                ]
            },
            "properties": {
                "name": "Highgate Literary and Scientific Institution"
            }
        },
        {
            "type": "Feature",
            "geometry": {
                "type": "Point",
                "coordinates": [
                    -0.149324045,
                    51.57220174
                ]
            },
            "properties": {
                "name": "Highgate School Archives"
            }
        },
        {
            "type": "Feature",
            "geometry": {
                "type": "Point",
                "coordinates": [
                    -0.478276716,
                    51.54518515
                ]
            },
            "properties": {
                "name": "Hillingdon Local Studies, Archives and Museums Servic"
            }
        },
        {
            "type": "Feature",
            "geometry": {
                "type": "Point",
                "coordinates": [
                    -0.076245514,
                    51.50827523
                ]
            },
            "properties": {
                "name": "Historic Royal Palaces Architectural Drawings Archive"
            }
        },
        {
            "type": "Feature",
            "geometry": {
                "type": "Point",
                "coordinates": [
                    -0.124025969,
                    51.51928304
                ]
            },
            "properties": {
                "name": "History of Parliament"
            }
        },
        {
            "type": "Feature",
            "geometry": {
                "type": "Point",
                "coordinates": [
                    -0.112437215,
                    51.51927701
                ]
            },
            "properties": {
                "name": "Hon Soc of Gray's Inn: Archives"
            }
        },
        {
            "type": "Feature",
            "geometry": {
                "type": "Point",
                "coordinates": [
                    -0.088410608,
                    51.52301548
                ]
            },
            "properties": {
                "name": "Honourable Artillery Company"
            }
        },
        {
            "type": "Feature",
            "geometry": {
                "type": "Point",
                "coordinates": [
                    -0.060736392,
                    51.44113087
                ]
            },
            "properties": {
                "name": "Horniman Museum and Gardens"
            }
        },
        {
            "type": "Feature",
            "geometry": {
                "type": "Point",
                "coordinates": [
                    -0.411070417,
                    51.44636331
                ]
            },
            "properties": {
                "name": "Hounslow and Feltham Local Studies Service"
            }
        },
        {
            "type": "Feature",
            "geometry": {
                "type": "Point",
                "coordinates": [
                    -0.146984288,
                    51.51794832
                ]
            },
            "properties": {
                "name": "Howard de Walden Estates Ltd"
            }
        },
        {
            "type": "Feature",
            "geometry": {
                "type": "Point",
                "coordinates": [
                    -0.017395336,
                    51.50553219
                ]
            },
            "properties": {
                "name": "HSBC Group Archives"
            }
        },
        {
            "type": "Feature",
            "geometry": {
                "type": "Point",
                "coordinates": [
                    -0.132398065,
                    51.52357126
                ]
            },
            "properties": {
                "name": "Huguenot Library"
            }
        },
        {
            "type": "Feature",
            "geometry": {
                "type": "Point",
                "coordinates": [
                    -0.118311294,
                    51.51979404
                ]
            },
            "properties": {
                "name": "Humanist Library and Archives"
            }
        },
        {
            "type": "Feature",
            "geometry": {
                "type": "Point",
                "coordinates": [
                    0.006662793,
                    51.46670535
                ]
            },
            "properties": {
                "name": "Illustrated London News Picture Library"
            }
        },
        {
            "type": "Feature",
            "geometry": {
                "type": "Point",
                "coordinates": [
                    -0.174888563,
                    51.49886271
                ]
            },
            "properties": {
                "name": "Imperial College Archives and Corporate Records Unit"
            }
        },
        {
            "type": "Feature",
            "geometry": {
                "type": "Point",
                "coordinates": [
                    -0.173544641,
                    51.51697102
                ]
            },
            "properties": {
                "name": "Imperial College Healthcare NHS Trust Archives"
            }
        },
        {
            "type": "Feature",
            "geometry": {
                "type": "Point",
                "coordinates": [
                    -0.108327792,
                    51.49600948
                ]
            },
            "properties": {
                "name": "Imperial War Museum Department of Documents"
            }
        },
        {
            "type": "Feature",
            "geometry": {
                "type": "Point",
                "coordinates": [
                    -0.106444522,
                    51.49452227
                ]
            },
            "properties": {
                "name": "Imperial War Museum Film Archive, Photographic Archiv"
            }
        },
        {
            "type": "Feature",
            "geometry": {
                "type": "Point",
                "coordinates": [
                    -0.129377362,
                    51.50217907
                ]
            },
            "properties": {
                "name": "Imperial War Museum: Churchill War Rooms"
            }
        },
        {
            "type": "Feature",
            "geometry": {
                "type": "Point",
                "coordinates": [
                    -0.111672912,
                    51.51440862
                ]
            },
            "properties": {
                "name": "Incorporated Council of Law Reporting for England and"
            }
        },
        {
            "type": "Feature",
            "geometry": {
                "type": "Point",
                "coordinates": [
                    -0.109981236,
                    51.51279865
                ]
            },
            "properties": {
                "name": "Inner Temple Archives"
            }
        },
        {
            "type": "Feature",
            "geometry": {
                "type": "Point",
                "coordinates": [
                    -0.133074443,
                    51.50034483
                ]
            },
            "properties": {
                "name": "Institute for European Environmental Policy"
            }
        },
        {
            "type": "Feature",
            "geometry": {
                "type": "Point",
                "coordinates": [
                    -0.111371942,
                    51.51782273
                ]
            },
            "properties": {
                "name": "Institute of Actuaries"
            }
        },
        {
            "type": "Feature",
            "geometry": {
                "type": "Point",
                "coordinates": [
                    -0.145487425,
                    51.50689961
                ]
            },
            "properties": {
                "name": "Institute of Brewing & Distilling"
            }
        },
        {
            "type": "Feature",
            "geometry": {
                "type": "Point",
                "coordinates": [
                    -0.088241168,
                    51.51639409
                ]
            },
            "properties": {
                "name": "Institute of Chartered Accountants in England and Wal"
            }
        },
        {
            "type": "Feature",
            "geometry": {
                "type": "Point",
                "coordinates": [
                    -0.130896308,
                    51.50638923
                ]
            },
            "properties": {
                "name": "Institute of Contemporary Arts"
            }
        },
        {
            "type": "Feature",
            "geometry": {
                "type": "Point",
                "coordinates": [
                    -0.131598377,
                    51.50719177
                ]
            },
            "properties": {
                "name": "Institute of Directors"
            }
        },
        {
            "type": "Feature",
            "geometry": {
                "type": "Point",
                "coordinates": [
                    -0.133374566,
                    51.50569129
                ]
            },
            "properties": {
                "name": "Institute of Materials, Minerals and Mining"
            }
        },
        {
            "type": "Feature",
            "geometry": {
                "type": "Point",
                "coordinates": [
                    -0.145217928,
                    51.52168834
                ]
            },
            "properties": {
                "name": "Institute of Physics"
            }
        },
        {
            "type": "Feature",
            "geometry": {
                "type": "Point",
                "coordinates": [
                    -0.128749716,
                    51.50110324
                ]
            },
            "properties": {
                "name": "Institution of Civil Engineers"
            }
        },
        {
            "type": "Feature",
            "geometry": {
                "type": "Point",
                "coordinates": [
                    -0.119481331,
                    51.51028947
                ]
            },
            "properties": {
                "name": "Institution of Engineering and Technology (IET) Archi"
            }
        },
        {
            "type": "Feature",
            "geometry": {
                "type": "Point",
                "coordinates": [
                    -0.119481331,
                    51.51028947
                ]
            },
            "properties": {
                "name": "Institution of Incorporated Engineers"
            }
        },
        {
            "type": "Feature",
            "geometry": {
                "type": "Point",
                "coordinates": [
                    -0.129955923,
                    51.50120342
                ]
            },
            "properties": {
                "name": "Institution of Mechanical Engineers Archive"
            }
        },
        {
            "type": "Feature",
            "geometry": {
                "type": "Point",
                "coordinates": [
                    -0.10724526,
                    51.51830308
                ]
            },
            "properties": {
                "name": "International Brewers Guild"
            }
        },
        {
            "type": "Feature",
            "geometry": {
                "type": "Point",
                "coordinates": [
                    -0.123713335,
                    51.48796534
                ]
            },
            "properties": {
                "name": "International Fund for Animal Welfare Charitable Trus"
            }
        },
        {
            "type": "Feature",
            "geometry": {
                "type": "Point",
                "coordinates": [
                    -0.098530535,
                    51.5230092
                ]
            },
            "properties": {
                "name": "International PEN"
            }
        },
        {
            "type": "Feature",
            "geometry": {
                "type": "Point",
                "coordinates": [
                    -0.035301972,
                    51.47785681
                ]
            },
            "properties": {
                "name": "IRIE! dance theatre"
            }
        },
        {
            "type": "Feature",
            "geometry": {
                "type": "Point",
                "coordinates": [
                    -0.104527002,
                    51.52648755
                ]
            },
            "properties": {
                "name": "Islington Local History Centre"
            }
        },
        {
            "type": "Feature",
            "geometry": {
                "type": "Point",
                "coordinates": [
                    -0.085528085,
                    51.45542039
                ]
            },
            "properties": {
                "name": "James Allen's Girls' School"
            }
        },
        {
            "type": "Feature",
            "geometry": {
                "type": "Point",
                "coordinates": [
                    -0.136509229,
                    51.49808833
                ]
            },
            "properties": {
                "name": "Japan Society"
            }
        },
        {
            "type": "Feature",
            "geometry": {
                "type": "Point",
                "coordinates": [
                    -0.144641468,
                    51.53728156
                ]
            },
            "properties": {
                "name": "Jewish Museum, London"
            }
        },
        {
            "type": "Feature",
            "geometry": {
                "type": "Point",
                "coordinates": [
                    -0.132398065,
                    51.52357126
                ]
            },
            "properties": {
                "name": "Jewish Studies Library"
            }
        },
        {
            "type": "Feature",
            "geometry": {
                "type": "Point",
                "coordinates": [
                    -0.213739211,
                    51.58821378
                ]
            },
            "properties": {
                "name": "Jews College Library"
            }
        },
        {
            "type": "Feature",
            "geometry": {
                "type": "Point",
                "coordinates": [
                    -0.16793018,
                    51.55556976
                ]
            },
            "properties": {
                "name": "Keats House"
            }
        },
        {
            "type": "Feature",
            "geometry": {
                "type": "Point",
                "coordinates": [
                    -0.194406095,
                    51.50141889
                ]
            },
            "properties": {
                "name": "Kensington and Chelsea Libraries and Arts Service"
            }
        },
        {
            "type": "Feature",
            "geometry": {
                "type": "Point",
                "coordinates": [
                    -0.184458946,
                    51.56967063
                ]
            },
            "properties": {
                "name": "King Alfred School"
            }
        },
        {
            "type": "Feature",
            "geometry": {
                "type": "Point",
                "coordinates": [
                    -0.118384483,
                    51.49948958
                ]
            },
            "properties": {
                "name": "King's College London: St Thomas' House Library"
            }
        },
        {
            "type": "Feature",
            "geometry": {
                "type": "Point",
                "coordinates": [
                    -0.105390235,
                    51.47129501
                ]
            },
            "properties": {
                "name": "Lambeth Archives"
            }
        },
        {
            "type": "Feature",
            "geometry": {
                "type": "Point",
                "coordinates": [
                    -0.141578562,
                    51.51690058
                ]
            },
            "properties": {
                "name": "Landscape Institute"
            }
        },
        {
            "type": "Feature",
            "geometry": {
                "type": "Point",
                "coordinates": [
                    -0.070958811,
                    51.5170911
                ]
            },
            "properties": {
                "name": "Lasa"
            }
        },
        {
            "type": "Feature",
            "geometry": {
                "type": "Point",
                "coordinates": [
                    -0.237063395,
                    51.49273648
                ]
            },
            "properties": {
                "name": "Latymer Upper School"
            }
        },
        {
            "type": "Feature",
            "geometry": {
                "type": "Point",
                "coordinates": [
                    -0.139575757,
                    51.52395509
                ]
            },
            "properties": {
                "name": "Law Centres Federation"
            }
        },
        {
            "type": "Feature",
            "geometry": {
                "type": "Point",
                "coordinates": [
                    -0.111837845,
                    51.51495084
                ]
            },
            "properties": {
                "name": "Law Society of England and Wales"
            }
        },
        {
            "type": "Feature",
            "geometry": {
                "type": "Point",
                "coordinates": [
                    -0.081543569,
                    51.51500491
                ]
            },
            "properties": {
                "name": "Leathersellers Company"
            }
        },
        {
            "type": "Feature",
            "geometry": {
                "type": "Point",
                "coordinates": [
                    -0.119701061,
                    51.53119215
                ]
            },
            "properties": {
                "name": "Legal Action Group"
            }
        },
        {
            "type": "Feature",
            "geometry": {
                "type": "Point",
                "coordinates": [
                    -0.203095135,
                    51.49858782
                ]
            },
            "properties": {
                "name": "Leighton House Museum"
            }
        },
        {
            "type": "Feature",
            "geometry": {
                "type": "Point",
                "coordinates": [
                    -0.189326369,
                    51.59527665
                ]
            },
            "properties": {
                "name": "Leo Baeck College Library"
            }
        },
        {
            "type": "Feature",
            "geometry": {
                "type": "Point",
                "coordinates": [
                    -0.309043989,
                    51.48961264
                ]
            },
            "properties": {
                "name": "Leprosy Mission International"
            }
        },
        {
            "type": "Feature",
            "geometry": {
                "type": "Point",
                "coordinates": [
                    -0.061484047,
                    51.52636805
                ]
            },
            "properties": {
                "name": "Lesbian and Gay Christian Movement"
            }
        },
        {
            "type": "Feature",
            "geometry": {
                "type": "Point",
                "coordinates": [
                    -0.011657207,
                    51.4592745
                ]
            },
            "properties": {
                "name": "Lewisham Local History and Archives Centre"
            }
        },
        {
            "type": "Feature",
            "geometry": {
                "type": "Point",
                "coordinates": [
                    -0.111522065,
                    51.51631266
                ]
            },
            "properties": {
                "name": "LexisNexis Butterworths"
            }
        },
        {
            "type": "Feature",
            "geometry": {
                "type": "Point",
                "coordinates": [
                    -0.137677393,
                    51.52243218
                ]
            },
            "properties": {
                "name": "Liberal Judaism archives"
            }
        },
        {
            "type": "Feature",
            "geometry": {
                "type": "Point",
                "coordinates": [
                    -0.121110979,
                    51.51516268
                ]
            },
            "properties": {
                "name": "Library and Museum of Freemasonry"
            }
        },
        {
            "type": "Feature",
            "geometry": {
                "type": "Point",
                "coordinates": [
                    -0.114457444,
                    51.51643182
                ]
            },
            "properties": {
                "name": "Lincoln's Inn Archives"
            }
        },
        {
            "type": "Feature",
            "geometry": {
                "type": "Point",
                "coordinates": [
                    -0.139576037,
                    51.50909914
                ]
            },
            "properties": {
                "name": "Linnean Society of London"
            }
        },
        {
            "type": "Feature",
            "geometry": {
                "type": "Point",
                "coordinates": [
                    -0.081149086,
                    51.52326552
                ]
            },
            "properties": {
                "name": "Livability (Shaftesbury Society)"
            }
        },
        {
            "type": "Feature",
            "geometry": {
                "type": "Point",
                "coordinates": [
                    -0.02211269,
                    51.54298591
                ]
            },
            "properties": {
                "name": "Live Art Development Agency's Study Room"
            }
        },
        {
            "type": "Feature",
            "geometry": {
                "type": "Point",
                "coordinates": [
                    -0.070973594,
                    51.51708235
                ]
            },
            "properties": {
                "name": "Living Streets"
            }
        },
        {
            "type": "Feature",
            "geometry": {
                "type": "Point",
                "coordinates": [
                    -0.082257511,
                    51.51301401
                ]
            },
            "properties": {
                "name": "Lloyd's"
            }
        },
        {
            "type": "Feature",
            "geometry": {
                "type": "Point",
                "coordinates": [
                    -0.080069711,
                    51.51876949
                ]
            },
            "properties": {
                "name": "Lloyds Banking Group Archives (London)"
            }
        },
        {
            "type": "Feature",
            "geometry": {
                "type": "Point",
                "coordinates": [
                    -0.078733423,
                    51.51250665
                ]
            },
            "properties": {
                "name": "Lloyd's Register Foundation Heritage & Education Cent"
            }
        },
        {
            "type": "Feature",
            "geometry": {
                "type": "Point",
                "coordinates": [
                    -0.195154616,
                    51.36207339
                ]
            },
            "properties": {
                "name": "London Borough of Sutton: Archives & Local Studies"
            }
        },
        {
            "type": "Feature",
            "geometry": {
                "type": "Point",
                "coordinates": [
                    -0.161352782,
                    51.52658256
                ]
            },
            "properties": {
                "name": "London Business School Library"
            }
        },