{
    "type": "FeatureCollection",
    "features": [
        {
            "type": "Feature",
            "geometry": {
                "type": "Point",
                "coordinates": [
                    -0.113122142,
                    51.52109586
                ]
            },
            "properties": {
                "name": "Domobaal"
            }
        },
        {
            "type": "Feature",
            "geometry": {
                "type": "Point",
                "coordinates": [
                    -0.108172319,
                    51.52365123
                ]
            },
            "properties": {
                "name": "Eagle Gallery"
            }
        },
        {
            "type": "Feature",
            "geometry": {
                "type": "Point",
                "coordinates": [
                    -0.08977259,
                    51.54232944
                ]
            },
            "properties": {
                "name": "Work"
            }
        },
        {
            "type": "Feature",
            "geometry": {
                "type": "Point",
                "coordinates": [
                    -0.17688165,
                    51.55799728
                ]
            },
            "properties": {
                "name": "Catto Gallery"
            }
        },
        {
            "type": "Feature",
            "geometry": {
                "type": "Point",
                "coordinates": [
                    -0.123436662,
                    51.52513757
                ]
            },
            "properties": {
                "name": "Orange Dot Gallery"
            }
        },
        {
            "type": "Feature",
            "geometry": {
                "type": "Point",
                "coordinates": [
                    -0.126033366,
                    51.51491744
                ]
            },
            "properties": {
                "name": "Lawrence Alkin Gallery"
            }
        },
        {
            "type": "Feature",
            "geometry": {
                "type": "Point",
                "coordinates": [
                    -0.177014019,
                    51.55865586
                ]
            },
            "properties": {
                "name": "Gallery K"
            }
        },
        {
            "type": "Feature",
            "geometry": {
                "type": "Point",
                "coordinates": [
                    -0.122767057,
                    51.51828276
                ]
            },
            "properties": {
                "name": "Austin/Desmond Fine Art"
            }
        },
        {
            "type": "Feature",
            "geometry": {
                "type": "Point",
                "coordinates": [
                    -0.120122844,
                    51.52018301
                ]
            },
            "properties": {
                "name": "The October Gallery"
            }
        },
        {
            "type": "Feature",
            "geometry": {
                "type": "Point",
                "coordinates": [
                    -0.133385054,
                    51.51843425
                ]
            },
            "properties": {
                "name": "Rebecca Hossack Gallery 2"
            }
        },
        {
            "type": "Feature",
            "geometry": {
                "type": "Point",
                "coordinates": [
                    -0.137943496,
                    51.52153754
                ]
            },
            "properties": {
                "name": "Rebecca Hossack Gallery 1"
            }
        },
        {
            "type": "Feature",
            "geometry": {
                "type": "Point",
                "coordinates": [
                    -0.132579415,
                    51.51839445
                ]
            },
            "properties": {
                "name": "The Framers Gallery"
            }
        },
        {
            "type": "Feature",
            "geometry": {
                "type": "Point",
                "coordinates": [
                    -0.152591987,
                    51.53966629
                ]
            },
            "properties": {
                "name": "Beside the Wave"
            }
        },
        {
            "type": "Feature",
            "geometry": {
                "type": "Point",
                "coordinates": [
                    -0.135485033,
                    51.51996059
                ]
            },
            "properties": {
                "name": "Woolff Gallery"
            }
        },
        {
            "type": "Feature",
            "geometry": {
                "type": "Point",
                "coordinates": [
                    -0.176921991,
                    51.55771011
                ]
            },
            "properties": {
                "name": "Lahd Gallery"
            }
        },
        {
            "type": "Feature",
            "geometry": {
                "type": "Point",
                "coordinates": [
                    -0.136442133,
                    51.54065193
                ]
            },
            "properties": {
                "name": "The Cob Gallery"
            }
        },
        {
            "type": "Feature",
            "geometry": {
                "type": "Point",
                "coordinates": [
                    -0.137360609,
                    51.52169017
                ]
            },
            "properties": {
                "name": "Hanmi Gallery"
            }
        },
        {
            "type": "Feature",
            "geometry": {
                "type": "Point",
                "coordinates": [
                    -0.116418769,
                    51.5295938
                ]
            },
            "properties": {
                "name": "Gagosian Gallery 1"
            }
        },
        {
            "type": "Feature",
            "geometry": {
                "type": "Point",
                "coordinates": [
                    -0.115321587,
                    51.51915264
                ]
            },
            "properties": {
                "name": "Novelty Automation"
            }
        },
        {
            "type": "Feature",
            "geometry": {
                "type": "Point",
                "coordinates": [
                    -0.115321587,
                    51.51915264
                ]
            },
            "properties": {
                "name": "Charlie Dutton Gallery"
            }
        },
        {
            "type": "Feature",
            "geometry": {
                "type": "Point",
                "coordinates": [
                    -0.139578703,
                    51.52209411
                ]
            },
            "properties": {
                "name": "The Gallery at 94"
            }
        },
        {
            "type": "Feature",
            "geometry": {
                "type": "Point",
                "coordinates": [
                    -0.137813889,
                    51.52294747
                ]
            },
            "properties": {
                "name": "Tristan Hoare"
            }
        },
        {
            "type": "Feature",
            "geometry": {
                "type": "Point",
                "coordinates": [
                    -0.127298575,
                    51.53291576
                ]
            },
            "properties": {
                "name": "Hardy Tree Gallery"
            }
        },
        {
            "type": "Feature",
            "geometry": {
                "type": "Point",
                "coordinates": [
                    -0.132432584,
                    51.51740282
                ]
            },
            "properties": {
                "name": "Contemporary Applied Arts"
            }
        },
        {
            "type": "Feature",
            "geometry": {
                "type": "Point",
                "coordinates": [
                    -0.128582733,
                    51.52656883
                ]
            },
            "properties": {
                "name": "The Crypt Gallery"
            }
        },
        {
            "type": "Feature",
            "geometry": {
                "type": "Point",
                "coordinates": [
                    -0.071078384,
                    51.51883799
                ]
            },
            "properties": {
                "name": "CubeFuture"
            }
        },
        {
            "type": "Feature",
            "geometry": {
                "type": "Point",
                "coordinates": [
                    -0.071273203,
                    51.51934484
                ]
            },
            "properties": {
                "name": "Eleven Spitalfields"
            }
        },
        {
            "type": "Feature",
            "geometry": {
                "type": "Point",
                "coordinates": [
                    -0.074641529,
                    51.51638732
                ]
            },
            "properties": {
                "name": "Leyden Gallery"
            }
        },
        {
            "type": "Feature",
            "geometry": {
                "type": "Point",
                "coordinates": [
                    -0.069808992,
                    51.52397045
                ]
            },
            "properties": {
                "name": "Brick Lane Gallery"
            }
        },
        {
            "type": "Feature",
            "geometry": {
                "type": "Point",
                "coordinates": [
                    -0.068939478,
                    51.52509833
                ]
            },
            "properties": {
                "name": "Espacio Gallery"
            }
        },
        {
            "type": "Feature",
            "geometry": {
                "type": "Point",
                "coordinates": [
                    -0.068776522,
                    51.51566133
                ]
            },
            "properties": {
                "name": "Whitechapel Gallery"
            }
        },
        {
            "type": "Feature",
            "geometry": {
                "type": "Point",
                "coordinates": [
                    -0.068491805,
                    51.51591746
                ]
            },
            "properties": {
                "name": "The Mews Project Space"
            }
        },
        {
            "type": "Feature",
            "geometry": {
                "type": "Point",
                "coordinates": [
                    -0.068547523,
                    51.51596334
                ]
            },
            "properties": {
                "name": "Stolenspace Gallery"
            }
        },
        {
            "type": "Feature",
            "geometry": {
                "type": "Point",
                "coordinates": [
                    -0.054393817,
                    51.52474415
                ]
            },
            "properties": {
                "name": "Maureen Paley"
            }
        },
        {
            "type": "Feature",
            "geometry": {
                "type": "Point",
                "coordinates": [
                    -0.021909521,
                    51.5423738
                ]
            },
            "properties": {
                "name": "Arebyte"
            }
        },
        {
            "type": "Feature",
            "geometry": {
                "type": "Point",
                "coordinates": [
                    -0.06880071,
                    51.52293991
                ]
            },
            "properties": {
                "name": "Proof London"
            }
        },
        {
            "type": "Feature",
            "geometry": {
                "type": "Point",
                "coordinates": [
                    -0.05811634,
                    51.53108925
                ]
            },
            "properties": {
                "name": "Vilma Gold"
            }
        },
        {
            "type": "Feature",
            "geometry": {
                "type": "Point",
                "coordinates": [
                    -0.053171278,
                    51.53411007
                ]
            },
            "properties": {
                "name": "Modern Art 2"
            }
        },
        {
            "type": "Feature",
            "geometry": {
                "type": "Point",
                "coordinates": [
                    -0.019611746,
                    51.53911538
                ]
            },
            "properties": {
                "name": "Forman's Smokehouse Gallery"
            }
        },
        {
            "type": "Feature",
            "geometry": {
                "type": "Point",
                "coordinates": [
                    -0.069622013,
                    51.50691545
                ]
            },
            "properties": {
                "name": "The Alexander Miles Gallery"
            }
        },
        {
            "type": "Feature",
            "geometry": {
                "type": "Point",
                "coordinates": [
                    -0.074645584,
                    51.5255732
                ]
            },
            "properties": {
                "name": "Calvert 22"
            }
        },
        {
            "type": "Feature",
            "geometry": {
                "type": "Point",
                "coordinates": [
                    -0.053964425,
                    51.5252217
                ]
            },
            "properties": {
                "name": "Breese Little"
            }
        },
        {
            "type": "Feature",
            "geometry": {
                "type": "Point",
                "coordinates": [
                    -0.070705406,
                    51.53014439
                ]
            },
            "properties": {
                "name": "Public Exhibitions"
            }
        },
        {
            "type": "Feature",
            "geometry": {
                "type": "Point",
                "coordinates": [
                    -0.059732984,
                    51.52930433
                ]
            },
            "properties": {
                "name": "Union Gallery"
            }
        },
        {
            "type": "Feature",
            "geometry": {
                "type": "Point",
                "coordinates": [
                    -0.055015701,
                    51.53276995
                ]
            },
            "properties": {
                "name": "Cell Project Space"
            }
        },
        {
            "type": "Feature",
            "geometry": {
                "type": "Point",
                "coordinates": [
                    -0.073257295,
                    51.52356848
                ]
            },
            "properties": {
                "name": "Unit 9"
            }
        },
        {
            "type": "Feature",
            "geometry": {
                "type": "Point",
                "coordinates": [
                    -0.075265891,
                    51.51764768
                ]
            },
            "properties": {
                "name": "Raven Row"
            }
        },
        {
            "type": "Feature",
            "geometry": {
                "type": "Point",
                "coordinates": [
                    -0.20243497,
                    51.4799865
                ]
            },
            "properties": {
                "name": "Studio 106"
            }
        },
        {
            "type": "Feature",
            "geometry": {
                "type": "Point",
                "coordinates": [
                    -0.216187306,
                    51.50957828
                ]
            },
            "properties": {
                "name": "Louise T Blouin Institute"
            }
        },
        {
            "type": "Feature",
            "geometry": {
                "type": "Point",
                "coordinates": [
                    -0.186894072,
                    51.47707611
                ]
            },
            "properties": {
                "name": "Hidde van Seggelen Gallery"
            }
        },
        {
            "type": "Feature",
            "geometry": {
                "type": "Point",
                "coordinates": [
                    -0.221209569,
                    51.41499765
                ]
            },
            "properties": {
                "name": "The Cynthia Corbett Gallery"
            }
        },
        {
            "type": "Feature",
            "geometry": {
                "type": "Point",
                "coordinates": [
                    -0.086112163,
                    51.51372411
                ]
            },
            "properties": {
                "name": "Bank of England Museum"
            }
        },
        {
            "type": "Feature",
            "geometry": {
                "type": "Point",
                "coordinates": [
                    -0.098778453,
                    51.51242821
                ]
            },
            "properties": {
                "name": "Carter Lane Gallery"
            }
        },
        {
            "type": "Feature",
            "geometry": {
                "type": "Point",
                "coordinates": [
                    -0.153207646,
                    51.47848393
                ]
            },
            "properties": {
                "name": "Pumphouse Gallery"
            }
        },
        {
            "type": "Feature",
            "geometry": {
                "type": "Point",
                "coordinates": [
                    -0.22221816,
                    51.5471635
                ]
            },
            "properties": {
                "name": "Brent Artists Resource"
            }
        },
        {
            "type": "Feature",
            "geometry": {
                "type": "Point",
                "coordinates": [
                    -0.165725579,
                    51.49745899
                ]
            },
            "properties": {
                "name": "Crane Kalman"
            }
        },
        {
            "type": "Feature",
            "geometry": {
                "type": "Point",
                "coordinates": [
                    -0.183116086,
                    51.48552552
                ]
            },
            "properties": {
                "name": "Hollywood Road Gallery"
            }
        },
        {
            "type": "Feature",
            "geometry": {
                "type": "Point",
                "coordinates": [
                    -0.193200542,
                    51.50626751
                ]
            },
            "properties": {
                "name": "The Rowley Gallery"
            }
        },
        {
            "type": "Feature",
            "geometry": {
                "type": "Point",
                "coordinates": [
                    -0.192206067,
                    51.50481322
                ]
            },
            "properties": {
                "name": "Japanese Gallery"
            }
        },
        {
            "type": "Feature",
            "geometry": {
                "type": "Point",
                "coordinates": [
                    -0.170416849,
                    51.48553399
                ]
            },
            "properties": {
                "name": "Northcote Gallery Chelsea"
            }
        },
        {
            "type": "Feature",
            "geometry": {
                "type": "Point",
                "coordinates": [
                    -0.209527314,
                    51.51586215
                ]
            },
            "properties": {
                "name": "Museum of Brands"
            }
        },
        {
            "type": "Feature",
            "geometry": {
                "type": "Point",
                "coordinates": [
                    -0.179344634,
                    51.48184261
                ]
            },
            "properties": {
                "name": "James Harvey British Art"
            }
        },
        {
            "type": "Feature",
            "geometry": {
                "type": "Point",
                "coordinates": [
                    -0.1972151,
                    51.51336221
                ]
            },
            "properties": {
                "name": "Doyle Devere"
            }
        },
        {
            "type": "Feature",
            "geometry": {
                "type": "Point",
                "coordinates": [
                    -0.161350241,
                    51.48981789
                ]
            },
            "properties": {
                "name": "Tryon St"
            }
        },
        {
            "type": "Feature",
            "geometry": {
                "type": "Point",
                "coordinates": [
                    -0.208604785,
                    51.50998432
                ]
            },
            "properties": {
                "name": "Lacey Contemporary"
            }
        },
        {
            "type": "Feature",
            "geometry": {
                "type": "Point",
                "coordinates": [
                    -0.17374671,
                    51.48928315
                ]
            },
            "properties": {
                "name": "The Dot Project"
            }
        },
        {
            "type": "Feature",
            "geometry": {
                "type": "Point",
                "coordinates": [
                    -0.179246376,
                    51.48177813
                ]
            },
            "properties": {
                "name": "Offer Waterman & Co"
            }
        },
        {
            "type": "Feature",
            "geometry": {
                "type": "Point",
                "coordinates": [
                    -0.175323519,
                    51.49200577
                ]
            },
            "properties": {
                "name": "Cadogan Contemporary"
            }
        },
        {
            "type": "Feature",
            "geometry": {
                "type": "Point",
                "coordinates": [
                    -0.205271243,
                    51.51742491
                ]
            },
            "properties": {
                "name": "The Muse"
            }
        },
        {
            "type": "Feature",
            "geometry": {
                "type": "Point",
                "coordinates": [
                    -0.204092588,
                    51.51514051
                ]
            },
            "properties": {
                "name": "GGGallery"
            }
        },
        {
            "type": "Feature",
            "geometry": {
                "type": "Point",
                "coordinates": [
                    -0.190550283,
                    51.50280048
                ]
            },
            "properties": {
                "name": "Richard Young Gallery"
            }
        },
        {
            "type": "Feature",
            "geometry": {
                "type": "Point",
                "coordinates": [
                    -0.183766347,
                    51.49852225
                ]
            },
            "properties": {
                "name": "Hackelbury"
            }
        },
        {
            "type": "Feature",
            "geometry": {
                "type": "Point",
                "coordinates": [
                    -0.142044713,
                    51.51123753
                ]
            },
            "properties": {
                "name": "Richard Green 2"
            }
        },
        {
            "type": "Feature",
            "geometry": {
                "type": "Point",
                "coordinates": [
                    -0.170750556,
                    51.48387629
                ]
            },
            "properties": {
                "name": "The Foundry Gallery"
            }
        },
        {
            "type": "Feature",
            "geometry": {
                "type": "Point",
                "coordinates": [
                    -0.17825199,
                    51.48540507
                ]
            },
            "properties": {
                "name": "The Little Black Gallery"
            }
        },
        {
            "type": "Feature",
            "geometry": {
                "type": "Point",
                "coordinates": [
                    -0.157118058,
                    51.49009321
                ]
            },
            "properties": {
                "name": "Saatchi Gallery"
            }
        },
        {
            "type": "Feature",
            "geometry": {
                "type": "Point",
                "coordinates": [
                    -0.205849663,
                    51.51884574
                ]
            },
            "properties": {
                "name": "Graffik Gallery"
            }
        },
        {
            "type": "Feature",
            "geometry": {
                "type": "Point",
                "coordinates": [
                    -0.164609267,
                    51.48830408
                ]
            },
            "properties": {
                "name": "Flying Colours Gallery"
            }
        },
        {
            "type": "Feature",
            "geometry": {
                "type": "Point",
                "coordinates": [
                    -0.164444764,
                    51.48845439
                ]
            },
            "properties": {
                "name": "Michael Hoppen Gallery"
            }
        },
        {
            "type": "Feature",
            "geometry": {
                "type": "Point",
                "coordinates": [
                    -0.09082227,
                    51.522075
                ]
            },
            "properties": {
                "name": "Dreamspace Gallery"
            }
        },
        {
            "type": "Feature",
            "geometry": {
                "type": "Point",
                "coordinates": [
                    -0.085553305,
                    51.51948888
                ]
            },
            "properties": {
                "name": "Bloomberg Space"
            }
        },
        {
            "type": "Feature",
            "geometry": {
                "type": "Point",
                "coordinates": [
                    -0.09483273,
                    51.52650211
                ]
            },
            "properties": {
                "name": "Arcade"
            }
        },
        {
            "type": "Feature",
            "geometry": {
                "type": "Point",
                "coordinates": [
                    -0.093593237,
                    51.52372993
                ]
            },
            "properties": {
                "name": "Sway Gallery"
            }
        },
        {
            "type": "Feature",
            "geometry": {
                "type": "Point",
                "coordinates": [
                    -0.121265295,
                    51.55371125
                ]
            },
            "properties": {
                "name": "Islington Arts Factory"
            }
        },
        {
            "type": "Feature",
            "geometry": {
                "type": "Point",
                "coordinates": [
                    -0.102922698,
                    51.53409791
                ]
            },
            "properties": {
                "name": "James Freeman Gallery"
            }
        },
        {
            "type": "Feature",
            "geometry": {
                "type": "Point",
                "coordinates": [
                    -0.091944142,
                    51.52317249
                ]
            },
            "properties": {
                "name": "Curious Duke Gallery"
            }
        },
        {
            "type": "Feature",
            "geometry": {
                "type": "Point",
                "coordinates": [
                    -0.109183494,
                    51.48601134
                ]
            },
            "properties": {
                "name": "Space Station 65"
            }
        },
        {
            "type": "Feature",
            "geometry": {
                "type": "Point",
                "coordinates": [
                    -0.052317588,
                    51.49363345
                ]
            },
            "properties": {
                "name": "CGP London"
            }
        },
        {
            "type": "Feature",
            "geometry": {
                "type": "Point",
                "coordinates": [
                    -0.100432908,
                    51.50695993
                ]
            },
            "properties": {
                "name": "Purdy Hicks"
            }
        },
        {
            "type": "Feature",
            "geometry": {
                "type": "Point",
                "coordinates": [
                    -0.145628394,
                    51.42351214
                ]
            },
            "properties": {
                "name": "Sprout Community Arts"
            }
        },
        {
            "type": "Feature",
            "geometry": {
                "type": "Point",
                "coordinates": [
                    -0.075559892,
                    51.52913735
                ]
            },
            "properties": {
                "name": "Flowers Gallery East"
            }
        },
        {
            "type": "Feature",
            "geometry": {
                "type": "Point",
                "coordinates": [
                    -0.093424071,
                    51.52986692
                ]
            },
            "properties": {
                "name": "Parasol unit"
            }
        },
        {
            "type": "Feature",
            "geometry": {
                "type": "Point",
                "coordinates": [
                    -0.058627996,
                    51.53499195
                ]
            },
            "properties": {
                "name": "Five Years"
            }
        },
        {
            "type": "Feature",
            "geometry": {
                "type": "Point",
                "coordinates": [
                    -0.07510294,
                    51.52356281
                ]
            },
            "properties": {
                "name": "Rocket Gallery"
            }
        },
        {
            "type": "Feature",
            "geometry": {
                "type": "Point",
                "coordinates": [
                    -0.079492834,
                    51.52579324
                ]
            },
            "properties": {
                "name": "Hoxton Art Gallery"
            }
        },
        {
            "type": "Feature",
            "geometry": {
                "type": "Point",
                "coordinates": [
                    -0.055499462,
                    51.54308574
                ]
            },
            "properties": {
                "name": "Galerie8"
            }
        },
        {
            "type": "Feature",
            "geometry": {
                "type": "Point",
                "coordinates": [
                    -0.077120569,
                    51.53675409
                ]
            },
            "properties": {
                "name": "The Proud Archivist"
            }
        },
        {
            "type": "Feature",
            "geometry": {
                "type": "Point",
                "coordinates": [
                    -0.079855719,
                    51.52607799
                ]
            },
            "properties": {
                "name": "Charlie Smith"
            }
        },
        {
            "type": "Feature",
            "geometry": {
                "type": "Point",
                "coordinates": [
                    -0.046037109,
                    51.54353673
                ]
            },
            "properties": {
                "name": "Unit G Gallery"
            }
        },
        {
            "type": "Feature",
            "geometry": {
                "type": "Point",
                "coordinates": [
                    -0.073816911,
                    51.55027066
                ]
            },
            "properties": {
                "name": "BSMT Space"
            }
        },
        {
            "type": "Feature",
            "geometry": {
                "type": "Point",
                "coordinates": [
                    -0.092939916,
                    51.52452873
                ]
            },
            "properties": {
                "name": "Modern Art 1"
            }
        },
        {
            "type": "Feature",
            "geometry": {
                "type": "Point",
                "coordinates": [
                    -0.060648022,
                    51.4942482
                ]
            },
            "properties": {
                "name": "Vibe Gallery"
            }
        },
        {
            "type": "Feature",
            "geometry": {
                "type": "Point",
                "coordinates": [
                    -0.118813917,
                    51.5309543
                ]
            },
            "properties": {
                "name": "All Visual Arts"
            }
        },
        {
            "type": "Feature",
            "geometry": {
                "type": "Point",
                "coordinates": [
                    -0.106261015,
                    51.53184051
                ]
            },
            "properties": {
                "name": "Cubitt Gallery"
            }
        },
        {
            "type": "Feature",
            "geometry": {
                "type": "Point",
                "coordinates": [
                    -0.096302938,
                    51.505427
                ]
            },
            "properties": {
                "name": "Unit 24"
            }
        },
        {
            "type": "Feature",
            "geometry": {
                "type": "Point",
                "coordinates": [
                    -0.079165688,
                    51.49687761
                ]
            },
            "properties": {
                "name": "Vitrine"
            }
        },
        {
            "type": "Feature",
            "geometry": {
                "type": "Point",
                "coordinates": [
                    -0.047934029,
                    51.50063633
                ]
            },
            "properties": {
                "name": "Horatio Jr"
            }
        },
        {
            "type": "Feature",
            "geometry": {
                "type": "Point",
                "coordinates": [
                    -0.198904848,
                    51.45662105
                ]
            },
            "properties": {
                "name": "The Wandsworth Museum"
            }
        },
        {
            "type": "Feature",
            "geometry": {
                "type": "Point",
                "coordinates": [
                    -0.13902792,
                    51.50660747
                ]
            },
            "properties": {
                "name": "Skarstedt Gallery"
            }
        },
        {
            "type": "Feature",
            "geometry": {
                "type": "Point",
                "coordinates": [
                    -0.136950107,
                    51.51620658
                ]
            },
            "properties": {
                "name": "Scream"
            }
        },
        {
            "type": "Feature",
            "geometry": {
                "type": "Point",
                "coordinates": [
                    -0.144433792,
                    51.51189141
                ]
            },
            "properties": {
                "name": "Ben Brown Fine Arts"
            }
        },
        {
            "type": "Feature",
            "geometry": {
                "type": "Point",
                "coordinates": [
                    -0.139271776,
                    51.50805031
                ]
            },
            "properties": {
                "name": "Marlborough Fine Art"
            }
        },
        {
            "type": "Feature",
            "geometry": {
                "type": "Point",
                "coordinates": [
                    -0.139827885,
                    51.50996577
                ]
            },
            "properties": {
                "name": "Messum's"
            }
        },
        {
            "type": "Feature",
            "geometry": {
                "type": "Point",
                "coordinates": [
                    -0.173406528,
                    51.50427907
                ]
            },
            "properties": {
                "name": "Serpentine Gallery"
            }
        },
        {
            "type": "Feature",
            "geometry": {
                "type": "Point",
                "coordinates": [
                    -0.135416932,
                    51.51068715
                ]
            },
            "properties": {
                "name": "Frith Street Gallery"
            }
        },
        {
            "type": "Feature",
            "geometry": {
                "type": "Point",
                "coordinates": [
                    -0.138302438,
                    51.51061608
                ]
            },
            "properties": {
                "name": "Sprovieri"
            }
        },
        {
            "type": "Feature",
            "geometry": {
                "type": "Point",
                "coordinates": [
                    -0.138682793,
                    51.51613516
                ]
            },
            "properties": {
                "name": "Berloni"
            }
        },
        {
            "type": "Feature",
            "geometry": {
                "type": "Point",
                "coordinates": [
                    -0.126655127,
                    51.48992522
                ]
            },
            "properties": {
                "name": "Chelsea Space"
            }
        },
        {
            "type": "Feature",
            "geometry": {
                "type": "Point",
                "coordinates": [
                    -0.142467085,
                    51.5109879
                ]
            },
            "properties": {
                "name": "Olivier Malingue"
            }
        },
        {
            "type": "Feature",
            "geometry": {
                "type": "Point",
                "coordinates": [
                    -0.142287149,
                    51.51080518
                ]
            },
            "properties": {
                "name": "Richard Green 1"
            }
        },
        {
            "type": "Feature",
            "geometry": {
                "type": "Point",
                "coordinates": [
                    -0.135577762,
                    51.50710128
                ]
            },
            "properties": {
                "name": "White Cube"
            }
        },
        {
            "type": "Feature",
            "geometry": {
                "type": "Point",
                "coordinates": [
                    -0.136402051,
                    51.50683819
                ]
            },
            "properties": {
                "name": "Willow Gallery"
            }
        },
        {
            "type": "Feature",
            "geometry": {
                "type": "Point",
                "coordinates": [
                    -0.141434251,
                    51.51334583
                ]
            },
            "properties": {
                "name": "Blain Southern"
            }
        },
        {
            "type": "Feature",
            "geometry": {
                "type": "Point",
                "coordinates": [
                    -0.139625012,
                    51.5075163
                ]
            },
            "properties": {
                "name": "Albemarle Gallery"
            }
        },
        {
            "type": "Feature",
            "geometry": {
                "type": "Point",
                "coordinates": [
                    -0.134411482,
                    51.5180099
                ]
            },
            "properties": {
                "name": "Rosenfeld Porcini"
            }
        },
        {
            "type": "Feature",
            "geometry": {
                "type": "Point",
                "coordinates": [
                    -0.166555495,
                    51.52057634
                ]
            },
            "properties": {
                "name": "Lisson Gallery 1"
            }
        },
        {
            "type": "Feature",
            "geometry": {
                "type": "Point",
                "coordinates": [
                    -0.203914024,
                    51.52517449
                ]
            },
            "properties": {
                "name": "London Print Studio"
            }
        },
        {
            "type": "Feature",
            "geometry": {
                "type": "Point",
                "coordinates": [
                    -0.1411914,
                    51.51187604
                ]
            },
            "properties": {
                "name": "Eykyn Maclean"
            }
        },
        {
            "type": "Feature",
            "geometry": {
                "type": "Point",
                "coordinates": [
                    -0.13840986,
                    51.5104559
                ]
            },
            "properties": {
                "name": "Laurent Delaye Gallery"
            }
        },
        {
            "type": "Feature",
            "geometry": {
                "type": "Point",
                "coordinates": [
                    -0.146910969,
                    51.5098081
                ]
            },
            "properties": {
                "name": "Pyms Gallery"
            }
        },
        {
            "type": "Feature",
            "geometry": {
                "type": "Point",
                "coordinates": [
                    -0.145238341,
                    51.50592343
                ]
            },
            "properties": {
                "name": "Imitate Modern"
            }
        },
        {
            "type": "Feature",
            "geometry": {
                "type": "Point",
                "coordinates": [
                    -0.191664496,
                    51.51485061
                ]
            },
            "properties": {
                "name": "Debut Contemporary"
            }
        },
        {
            "type": "Feature",
            "geometry": {
                "type": "Point",
                "coordinates": [
                    -0.163950904,
                    51.51436604
                ]
            },
            "properties": {
                "name": "Mark Gallery"
            }
        },
        {
            "type": "Feature",
            "geometry": {
                "type": "Point",
                "coordinates": [
                    -0.142399088,
                    51.51088789
                ]
            },
            "properties": {
                "name": "Halcyon Gallery I"
            }
        },
        {
            "type": "Feature",
            "geometry": {
                "type": "Point",
                "coordinates": [
                    -0.165185374,
                    51.51772196
                ]
            },
            "properties": {
                "name": "PM/AM"
            }
        },
        {
            "type": "Feature",
            "geometry": {
                "type": "Point",
                "coordinates": [
                    -0.155342499,
                    51.5194382
                ]
            },
            "properties": {
                "name": "Graham Hunter Gallery"
            }
        },
        {
            "type": "Feature",
            "geometry": {
                "type": "Point",
                "coordinates": [
                    -0.137207443,
                    51.50638098
                ]
            },
            "properties": {
                "name": "Sims Reed Gallery"
            }
        },
        {
            "type": "Feature",
            "geometry": {
                "type": "Point",
                "coordinates": [
                    -0.137557597,
                    51.51580253
                ]
            },
            "properties": {
                "name": "Getty Images Gallery"
            }
        },
        {
            "type": "Feature",
            "geometry": {
                "type": "Point",
                "coordinates": [
                    -0.137490282,
                    51.51179933
                ]
            },
            "properties": {
                "name": "Sadie Coles HQ"
            }
        },
        {
            "type": "Feature",
            "geometry": {
                "type": "Point",
                "coordinates": [
                    -0.140015737,
                    51.50960001
                ]
            },
            "properties": {
                "name": "Waddington Custot Galleries"
            }
        },
        {
            "type": "Feature",
            "geometry": {
                "type": "Point",
                "coordinates": [
                    -0.14938174,
                    51.51712289
                ]
            },
            "properties": {
                "name": "Heartbreak"
            }
        },
        {
            "type": "Feature",
            "geometry": {
                "type": "Point",
                "coordinates": [
                    -0.140343849,
                    51.51003691
                ]
            },
            "properties": {
                "name": "Berrd Jacobson Gallery"
            }
        },
        {
            "type": "Feature",
            "geometry": {
                "type": "Point",
                "coordinates": [
                    -0.140343849,
                    51.51003691
                ]
            },
            "properties": {
                "name": "St Petersburg Gallery"
            }
        },
        {
            "type": "Feature",
            "geometry": {
                "type": "Point",
                "coordinates": [
                    -0.154493399,
                    51.51084502
                ]
            },
            "properties": {
                "name": "Michael Werner Gallery"
            }
        },
        {
            "type": "Feature",
            "geometry": {
                "type": "Point",
                "coordinates": [
                    -0.13929091,
                    51.51217866
                ]
            },
            "properties": {
                "name": "Workplace Gallery"
            }
        },
        {
            "type": "Feature",
            "geometry": {
                "type": "Point",
                "coordinates": [
                    -0.1343326,
                    51.51711828
                ]
            },
            "properties": {
                "name": "Paradise Row"
            }
        },
        {
            "type": "Feature",
            "geometry": {
                "type": "Point",
                "coordinates": [
                    -0.1343326,
                    51.51711828
                ]
            },
            "properties": {
                "name": "Edel Assanti"
            }
        },
        {
            "type": "Feature",
            "geometry": {
                "type": "Point",
                "coordinates": [
                    -0.131467958,
                    51.51631722
                ]
            },
            "properties": {
                "name": "Rook & Raven"
            }
        },
        {
            "type": "Feature",
            "geometry": {
                "type": "Point",
                "coordinates": [
                    -0.140222845,
                    51.50734591
                ]
            },
            "properties": {
                "name": "Partners & Mucciaccia"
            }
        },
        {
            "type": "Feature",
            "geometry": {
                "type": "Point",
                "coordinates": [
                    -0.138237271,
                    51.51009342
                ]
            },
            "properties": {
                "name": "James Hyman Fine Art"
            }
        },
        {
            "type": "Feature",
            "geometry": {
                "type": "Point",
                "coordinates": [
                    -0.139218286,
                    51.511485
                ]
            },
            "properties": {
                "name": "Hauser & Wirth 2"
            }
        },
        {
            "type": "Feature",
            "geometry": {
                "type": "Point",
                "coordinates": [
                    -0.194734461,
                    51.52068971
                ]
            },
            "properties": {
                "name": "Great Western Studios"
            }
        },
        {
            "type": "Feature",
            "geometry": {
                "type": "Point",
                "coordinates": [
                    -0.13837141,
                    51.50574266
                ]
            },
            "properties": {
                "name": "Aktis Gallery"
            }
        },
        {
            "type": "Feature",
            "geometry": {
                "type": "Point",
                "coordinates": [
                    -0.130662675,
                    51.51345343
                ]
            },
            "properties": {
                "name": "Pertwee,  Anderson & Gold"
            }
        },
        {
            "type": "Feature",
            "geometry": {
                "type": "Point",
                "coordinates": [
                    -0.135338243,
                    51.50626107
                ]
            },
            "properties": {
                "name": "David Gill"
            }
        },
        {
            "type": "Feature",
            "geometry": {
                "type": "Point",
                "coordinates": [
                    -0.14394044,
                    51.51374527
                ]
            },
            "properties": {
                "name": "Whitfield Fine Art"
            }
        },
        {
            "type": "Feature",
            "geometry": {
                "type": "Point",
                "coordinates": [
                    -0.135964335,
                    51.50681063
                ]
            },
            "properties": {
                "name": "Thomas Dane Gallery"
            }
        },
        {
            "type": "Feature",
            "geometry": {
                "type": "Point",
                "coordinates": [
                    -0.14206434,
                    51.51238451
                ]
            },
            "properties": {
                "name": "Victoria Miro Gallery II"
            }
        },
        {
            "type": "Feature",
            "geometry": {
                "type": "Point",
                "coordinates": [
                    -0.134973061,
                    51.51696659
                ]
            },
            "properties": {
                "name": "Alison Jacques Gallery"
            }
        },
        {
            "type": "Feature",
            "geometry": {
                "type": "Point",
                "coordinates": [
                    -0.137861027,
                    51.52002532
                ]
            },
            "properties": {
                "name": "Fold"
            }
        },
        {
            "type": "Feature",
            "geometry": {
                "type": "Point",
                "coordinates": [
                    -0.14394044,
                    51.51374527
                ]
            },
            "properties": {
                "name": "Annely Juda Fine Art"
            }
        },
        {
            "type": "Feature",
            "geometry": {
                "type": "Point",
                "coordinates": [
                    -0.146160507,
                    51.51054271
                ]
            },
            "properties": {
                "name": "Gagosian Gallery 2"
            }
        },
        {
            "type": "Feature",
            "geometry": {
                "type": "Point",
                "coordinates": [
                    -0.06761387,
                    51.46921688
                ]
            },
            "properties": {
                "name": "The Sunday Painter"
            }
        },
        {
            "type": "Feature",
            "geometry": {
                "type": "Point",
                "coordinates": [
                    -0.087306703,
                    51.52649653
                ]
            },
            "properties": {
                "name": "Beers London"
            }
        },
        {
            "type": "Feature",
            "geometry": {
                "type": "Point",
                "coordinates": [
                    -0.119966009,
                    51.53448925
                ]
            },
            "properties": {
                "name": "Pangolin London"
            }
        },
        {
            "type": "Feature",
            "geometry": {
                "type": "Point",
                "coordinates": [
                    -0.104519048,
                    51.52968989
                ]
            },
            "properties": {
                "name": "William Benington"
            }
        },
        {
            "type": "Feature",
            "geometry": {
                "type": "Point",
                "coordinates": [
                    -0.196558984,
                    51.46135157
                ]
            },
            "properties": {
                "name": "Maestro Arts"
            }
        },
        {
            "type": "Feature",
            "geometry": {
                "type": "Point",
                "coordinates": [
                    -0.183334547,
                    51.46263131
                ]
            },
            "properties": {
                "name": "Plus One Gallery"
            }
        },
        {
            "type": "Feature",
            "geometry": {
                "type": "Point",
                "coordinates": [
                    -0.06415312,
                    51.46949183
                ]
            },
            "properties": {
                "name": "Son Gallery"
            }
        },
        {
            "type": "Feature",
            "geometry": {
                "type": "Point",
                "coordinates": [
                    -0.080104287,
                    51.52407657
                ]
            },
            "properties": {
                "name": "ICN"
            }
        },
        {
            "type": "Feature",
            "geometry": {
                "type": "Point",
                "coordinates": [
                    -0.124961977,
                    51.48484375
                ]
            },
            "properties": {
                "name": "Amstel Art Gallery"
            }
        },
        {
            "type": "Feature",
            "geometry": {
                "type": "Point",
                "coordinates": [
                    -0.138535006,
                    51.50915382
                ]
            },
            "properties": {
                "name": "Pace London 1"
            }
        },
        {
            "type": "Feature",
            "geometry": {
                "type": "Point",
                "coordinates": [
                    -0.144641359,
                    51.51919745
                ]
            },
            "properties": {
                "name": "Asia House"
            }
        },
        {
            "type": "Feature",
            "geometry": {
                "type": "Point",
                "coordinates": [
                    -0.13453787,
                    51.51985559
                ]
            },
            "properties": {
                "name": "Coningsby Gallery"
            }
        },
        {
            "type": "Feature",
            "geometry": {
                "type": "Point",
                "coordinates": [
                    -0.081356182,
                    51.5243398
                ]
            },
            "properties": {
                "name": "Blackhall Studios"
            }
        },
        {
            "type": "Feature",
            "geometry": {
                "type": "Point",
                "coordinates": [
                    -0.11539545,
                    51.49291799
                ]
            },
            "properties": {
                "name": "Newport Street"
            }
        },
        {
            "type": "Feature",
            "geometry": {
                "type": "Point",
                "coordinates": [
                    0.00345882,
                    51.48418555
                ]
            },
            "properties": {
                "name": "Paul McPherson Gallery"
            }
        },
        {
            "type": "Feature",
            "geometry": {
                "type": "Point",
                "coordinates": [
                    -0.080708531,
                    51.52671251
                ]
            },
            "properties": {
                "name": "Galleries Goldstein"
            }
        },
        {
            "type": "Feature",
            "geometry": {
                "type": "Point",
                "coordinates": [
                    -0.108869727,
                    51.4942894
                ]
            },
            "properties": {
                "name": "Danielle Arud"
            }
        },
        {
            "type": "Feature",
            "geometry": {
                "type": "Point",
                "coordinates": [
                    -0.124832425,
                    51.47606391
                ]
            },
            "properties": {
                "name": "Caroline Wiseman"
            }
        },
        {
            "type": "Feature",
            "geometry": {
                "type": "Point",
                "coordinates": [
                    -0.168076534,
                    51.52039326
                ]
            },
            "properties": {
                "name": "Lisson Gallery 2"
            }
        },
        {
            "type": "Feature",
            "geometry": {
                "type": "Point",
                "coordinates": [
                    -0.136590877,
                    51.50628997
                ]
            },
            "properties": {
                "name": "Rossi & Rossi"
            }
        },
        {
            "type": "Feature",
            "geometry": {
                "type": "Point",
                "coordinates": [
                    -0.163910995,
                    51.51392473
                ]
            },
            "properties": {
                "name": "Fiumano Fine Art"
            }
        },
        {
            "type": "Feature",
            "geometry": {
                "type": "Point",
                "coordinates": [
                    -0.080045214,
                    51.52534361
                ]
            },
            "properties": {
                "name": "CNB Gallery"
            }
        },
        {
            "type": "Feature",
            "geometry": {
                "type": "Point",
                "coordinates": [
                    -0.081675622,
                    51.52565809
                ]
            },
            "properties": {
                "name": "Red Gallery"
            }
        },
        {
            "type": "Feature",
            "geometry": {
                "type": "Point",
                "coordinates": [
                    -0.082405439,
                    51.52304389
                ]
            },
            "properties": {
                "name": "Sigl Gallery"
            }
        },
        {
            "type": "Feature",
            "geometry": {
                "type": "Point",
                "coordinates": [
                    -0.042557202,
                    51.53781866
                ]
            },
            "properties": {
                "name": "The Residence"
            }
        },
        {
            "type": "Feature",
            "geometry": {
                "type": "Point",
                "coordinates": [
                    -0.078943348,
                    51.53336585
                ]
            },
            "properties": {
                "name": "Mercer Chance"
            }
        },
        {
            "type": "Feature",
            "geometry": {
                "type": "Point",
                "coordinates": [
                    -0.08007436,
                    51.52666246
                ]
            },
            "properties": {
                "name": "Daniel Blau"
            }
        },
        {
            "type": "Feature",
            "geometry": {
                "type": "Point",
                "coordinates": [
                    -0.083722304,
                    51.5315104
                ]
            },
            "properties": {
                "name": "Waterside Contemporary"
            }
        },
        {
            "type": "Feature",
            "geometry": {
                "type": "Point",
                "coordinates": [
                    -0.137075983,
                    51.59785152
                ]
            },
            "properties": {
                "name": "renj Art Gallery"
            }
        },
        {
            "type": "Feature",
            "geometry": {
                "type": "Point",
                "coordinates": [
                    -0.144848997,
                    51.57011295
                ]
            },
            "properties": {
                "name": "Highgate Contemporary Art"
            }
        },
        {
            "type": "Feature",
            "geometry": {
                "type": "Point",
                "coordinates": [
                    -0.108367728,
                    51.49736611
                ]
            },
            "properties": {
                "name": "Morley College Gallery"
            }
        },
        {
            "type": "Feature",
            "geometry": {
                "type": "Point",
                "coordinates": [
                    -0.113850591,
                    51.48462055
                ]
            },
            "properties": {
                "name": "Gasworks Gallery"
            }
        },
        {
            "type": "Feature",
            "geometry": {
                "type": "Point",
                "coordinates": [
                    0.010547457,
                    51.46587877
                ]
            },
            "properties": {
                "name": "Blackheath Gallery"
            }
        },
        {
            "type": "Feature",
            "geometry": {
                "type": "Point",
                "coordinates": [
                    -0.024250769,
                    51.47898075
                ]
            },
            "properties": {
                "name": "Bearspace"
            }
        },
        {
            "type": "Feature",
            "geometry": {
                "type": "Point",
                "coordinates": [
                    -0.163651714,
                    51.45655973
                ]
            },
            "properties": {
                "name": "Foss Fine Art"
            }
        },
        {
            "type": "Feature",
            "geometry": {
                "type": "Point",
                "coordinates": [
                    -0.164206711,
                    51.45636157
                ]
            },
            "properties": {
                "name": "Northcote Gallery Battersea"
            }
        },
        {
            "type": "Feature",
            "geometry": {
                "type": "Point",
                "coordinates": [
                    -0.187224359,
                    51.45930095
                ]
            },
            "properties": {
                "name": "Kristin Hjellegjerde"
            }
        },
        {
            "type": "Feature",
            "geometry": {
                "type": "Point",
                "coordinates": [
                    -0.151571299,
                    51.49045557
                ]
            },
            "properties": {
                "name": "John Adams Fine Art"
            }
        },
        {
            "type": "Feature",
            "geometry": {
                "type": "Point",
                "coordinates": [
                    -0.146406592,
                    51.49382757
                ]
            },
            "properties": {
                "name": "Eleven"
            }
        },
        {
            "type": "Feature",
            "geometry": {
                "type": "Point",
                "coordinates": [
                    -0.155013173,
                    51.49869392
                ]
            },
            "properties": {
                "name": "The Osborne Studio Gallery"
            }
        },
        {
            "type": "Feature",
            "geometry": {
                "type": "Point",
                "coordinates": [
                    -0.130299445,
                    51.50718811
                ]
            },
            "properties": {
                "name": "La Galleria"
            }
        },
        {
            "type": "Feature",
            "geometry": {
                "type": "Point",
                "coordinates": [
                    -0.139068675,
                    51.51692373
                ]
            },
            "properties": {
                "name": "GRAD"
            }
        },
        {
            "type": "Feature",
            "geometry": {
                "type": "Point",
                "coordinates": [
                    -0.130491755,
                    51.50718677
                ]
            },
            "properties": {
                "name": "Stephen Wiltshire Gallery"
            }
        },
        {
            "type": "Feature",
            "geometry": {
                "type": "Point",
                "coordinates": [
                    -0.131706359,
                    51.50661696
                ]
            },
            "properties": {
                "name": "Panter and Hall"
            }
        },
        {
            "type": "Feature",
            "geometry": {
                "type": "Point",
                "coordinates": [
                    -0.134602456,
                    51.50557485
                ]
            },
            "properties": {
                "name": "Alan Cristea Gallery"
            }
        },
        {
            "type": "Feature",
            "geometry": {
                "type": "Point",
                "coordinates": [
                    -0.13660848,
                    51.50585856
                ]
            },
            "properties": {
                "name": "Malcolm Fairley"
            }
        },
        {
            "type": "Feature",
            "geometry": {
                "type": "Point",
                "coordinates": [
                    -0.136578309,
                    51.5062448
                ]
            },
            "properties": {
                "name": "Paisnel Gallery"
            }
        },
        {
            "type": "Feature",
            "geometry": {
                "type": "Point",
                "coordinates": [
                    -0.13794979,
                    51.50724689
                ]
            },
            "properties": {
                "name": "Sladmore"
            }
        },
        {
            "type": "Feature",
            "geometry": {
                "type": "Point",
                "coordinates": [
                    -0.136678491,
                    51.50661513
                ]
            },
            "properties": {
                "name": "Chris Beetles"
            }
        },
        {
            "type": "Feature",
            "geometry": {
                "type": "Point",
                "coordinates": [
                    -0.11233368,
                    51.46135658
                ]
            },
            "properties": {
                "name": "Photofusion Gallery"
            }
        },
        {
            "type": "Feature",
            "geometry": {
                "type": "Point",
                "coordinates": [
                    -0.111518999,
                    51.46330407
                ]
            },
            "properties": {
                "name": "Brixton Art Gallery"
            }
        },
        {
            "type": "Feature",
            "geometry": {
                "type": "Point",
                "coordinates": [
                    -0.11063857,
                    51.51109098
                ]
            },
            "properties": {
                "name": "Two Temple Place"
            }
        },
        {
            "type": "Feature",
            "geometry": {
                "type": "Point",
                "coordinates": [
                    -0.153774859,
                    51.51899084
                ]
            },
            "properties": {
                "name": "Atlas Gallery"
            }
        },
        {
            "type": "Feature",
            "geometry": {
                "type": "Point",
                "coordinates": [
                    -0.141693122,
                    51.51513066
                ]
            },
            "properties": {
                "name": "Fashion Space Gallery"
            }
        },
        {
            "type": "Feature",
            "geometry": {
                "type": "Point",
                "coordinates": [
                    -0.154303249,
                    51.51744211
                ]
            },
            "properties": {
                "name": "Hay Hill Gallery"
            }
        },
        {
            "type": "Feature",
            "geometry": {
                "type": "Point",
                "coordinates": [
                    -0.154072901,
                    51.5194632
                ]
            },
            "properties": {
                "name": "A&D Gallery"
            }
        },
        {
            "type": "Feature",
            "geometry": {
                "type": "Point",
                "coordinates": [
                    -0.13653005,
                    51.51590312
                ]
            },
            "properties": {
                "name": "Pi Artworks"
            }
        },
        {
            "type": "Feature",
            "geometry": {
                "type": "Point",
                "coordinates": [
                    -0.136616849,
                    51.5158955
                ]
            },
            "properties": {
                "name": "Pilar Corrias"
            }
        },
        {
            "type": "Feature",
            "geometry": {
                "type": "Point",
                "coordinates": [
                    -0.136383892,
                    51.51630551
                ]
            },
            "properties": {
                "name": "Art First"
            }
        },
        {
            "type": "Feature",
            "geometry": {
                "type": "Point",
                "coordinates": [
                    -0.134486531,
                    51.5182899
                ]
            },
            "properties": {
                "name": "ncy Victor"
            }
        },
        {
            "type": "Feature",
            "geometry": {
                "type": "Point",
                "coordinates": [
                    -0.136067345,
                    51.51770347
                ]
            },
            "properties": {
                "name": "Gallery Libby Sellers"
            }
        },
        {
            "type": "Feature",
            "geometry": {
                "type": "Point",
                "coordinates": [
                    -0.14394044,
                    51.51374527
                ]
            },
            "properties": {
                "name": "Ronchini Gallery"
            }
        },
        {
            "type": "Feature",
            "geometry": {
                "type": "Point",
                "coordinates": [
                    -0.135689957,
                    51.50823625
                ]
            },
            "properties": {
                "name": "Hauser & Wirth 1"
            }
        },
        {
            "type": "Feature",
            "geometry": {
                "type": "Point",
                "coordinates": [
                    -0.135609492,
                    51.51408978
                ]
            },
            "properties": {
                "name": "Anthony Reynolds Gallery"
            }
        },
        {
            "type": "Feature",
            "geometry": {
                "type": "Point",
                "coordinates": [
                    -0.13945254,
                    51.50962705
                ]
            },
            "properties": {
                "name": "Flowers Gallery Central"
            }
        },
        {
            "type": "Feature",
            "geometry": {
                "type": "Point",
                "coordinates": [
                    -0.140086644,
                    51.50856688
                ]
            },
            "properties": {
                "name": "Erskine Hall & Coe"
            }
        },
        {
            "type": "Feature",
            "geometry": {
                "type": "Point",
                "coordinates": [
                    -0.141425169,
                    51.50896583
                ]
            },
            "properties": {
                "name": "David Zwimer"
            }
        },
        {
            "type": "Feature",
            "geometry": {
                "type": "Point",
                "coordinates": [
                    -0.138992012,
                    51.50854951
                ]
            },
            "properties": {
                "name": "Colghi"
            }
        },
        {
            "type": "Feature",
            "geometry": {
                "type": "Point",
                "coordinates": [
                    -0.140809096,
                    51.50781388
                ]
            },
            "properties": {
                "name": "Gazelli Art House"
            }
        },
        {
            "type": "Feature",
            "geometry": {
                "type": "Point",
                "coordinates": [
                    -0.142168061,
                    51.50948124
                ]
            },
            "properties": {
                "name": "Spr\u00c3\u00bcth Magers"
            }
        },
        {
            "type": "Feature",
            "geometry": {
                "type": "Point",
                "coordinates": [
                    -0.141480221,
                    51.50902966
                ]
            },
            "properties": {
                "name": "D-Contemporary"
            }
        },
        {
            "type": "Feature",
            "geometry": {
                "type": "Point",
                "coordinates": [
                    -0.141099945,
                    51.5073958
                ]
            },
            "properties": {
                "name": "Erarta Galleries"
            }
        },
        {
            "type": "Feature",
            "geometry": {
                "type": "Point",
                "coordinates": [
                    -0.143551607,
                    51.5105464
                ]
            },
            "properties": {
                "name": "Sladmore Contemporary"
            }
        },
        {
            "type": "Feature",
            "geometry": {
                "type": "Point",
                "coordinates": [
                    -0.143597589,
                    51.51012443
                ]
            },
            "properties": {
                "name": "Lefevre Fine Art"
            }
        },
        {
            "type": "Feature",
            "geometry": {
                "type": "Point",
                "coordinates": [
                    -0.144155207,
                    51.51165317
                ]
            },
            "properties": {
                "name": "Sophia Contemporary"
            }
        },
        {
            "type": "Feature",
            "geometry": {
                "type": "Point",
                "coordinates": [
                    -0.142216958,
                    51.5107591
                ]
            },
            "properties": {
                "name": "The Fine Art Society"
            }
        },
        {
            "type": "Feature",
            "geometry": {
                "type": "Point",
                "coordinates": [
                    -0.146167228,
                    51.51144217
                ]
            },
            "properties": {
                "name": "Gimpel Fils"
            }
        },
        {
            "type": "Feature",
            "geometry": {
                "type": "Point",
                "coordinates": [
                    -0.15278946,
                    51.5116366
                ]
            },
            "properties": {
                "name": "Gallery Ele Shchuki"
            }
        },
        {
            "type": "Feature",
            "geometry": {
                "type": "Point",
                "coordinates": [
                    -0.149965329,
                    51.50805762
                ]
            },
            "properties": {
                "name": "Sadie Coles HQ Davies Street"
            }
        },
        {
            "type": "Feature",
            "geometry": {
                "type": "Point",
                "coordinates": [
                    -0.148368465,
                    51.51011892
                ]
            },
            "properties": {
                "name": "Hamiltons Gallery"
            }
        },
        {
            "type": "Feature",
            "geometry": {
                "type": "Point",
                "coordinates": [
                    -0.144603469,
                    51.51303628
                ]
            },
            "properties": {
                "name": "Galeries Bartoux"
            }
        },
        {
            "type": "Feature",
            "geometry": {
                "type": "Point",
                "coordinates": [
                    -0.191664496,
                    51.51485061
                ]
            },
            "properties": {
                "name": "Salon Contemporary"
            }
        },
        {
            "type": "Feature",
            "geometry": {
                "type": "Point",
                "coordinates": [
                    -0.184352468,
                    51.52256197
                ]
            },
            "properties": {
                "name": "Thomas & Paul"
            }
        },
        {
            "type": "Feature",
            "geometry": {
                "type": "Point",
                "coordinates": [
                    -0.007576419,
                    51.48085705
                ]
            },
            "properties": {
                "name": "Greenwich Printmakers Gallery"
            }
        },
        {
            "type": "Feature",
            "geometry": {
                "type": "Point",
                "coordinates": [
                    -0.067405863,
                    51.54735022
                ]
            },
            "properties": {
                "name": "The Invisible Line"
            }
        },
        {
            "type": "Feature",
            "geometry": {
                "type": "Point",
                "coordinates": [
                    -0.063496726,
                    51.54769047
                ]
            },
            "properties": {
                "name": "Fishbar"
            }
        },
        {
            "type": "Feature",
            "geometry": {
                "type": "Point",
                "coordinates": [
                    -0.070682623,
                    51.55752194
                ]
            },
            "properties": {
                "name": "Rowing"
            }
        },
        {
            "type": "Feature",
            "geometry": {
                "type": "Point",
                "coordinates": [
                    -0.144520329,
                    51.51295402
                ]
            },
            "properties": {
                "name": "ContiniArtUK"
            }
        },
        {
            "type": "Feature",
            "geometry": {
                "type": "Point",
                "coordinates": [
                    -0.144520329,
                    51.51295402
                ]
            },
            "properties": {
                "name": "Max Wigram Gallery"
            }
        },
        {
            "type": "Feature",
            "geometry": {
                "type": "Point",
                "coordinates": [
                    -0.148283137,
                    51.51009059
                ]
            },
            "properties": {
                "name": "Timothy Taylor Gallery"
            }
        },
        {
            "type": "Feature",
            "geometry": {
                "type": "Point",
                "coordinates": [
                    -0.068553471,
                    51.53081191
                ]
            },
            "properties": {
                "name": "Andor Gallery"
            }
        },
        {
            "type": "Feature",
            "geometry": {
                "type": "Point",
                "coordinates": [
                    -0.095773228,
                    51.52193065
                ]
            },
            "properties": {
                "name": "EXHIBIT at Golden Lane Estate"
            }
        },
        {
            "type": "Feature",
            "geometry": {
                "type": "Point",
                "coordinates": [
                    -0.068548339,
                    51.46897371
                ]
            },
            "properties": {
                "name": "The Sassoon Gallery"
            }
        },
        {
            "type": "Feature",
            "geometry": {
                "type": "Point",
                "coordinates": [
                    -0.0775982,
                    51.50881823
                ]
            },
            "properties": {
                "name": "Crypt Museum"
            }
        },
        {
            "type": "Feature",
            "geometry": {
                "type": "Point",
                "coordinates": [
                    -0.110229078,
                    51.48650486
                ]
            },
            "properties": {
                "name": "Brocket Gallery"
            }
        },
        {
            "type": "Feature",
            "geometry": {
                "type": "Point",
                "coordinates": [
                    -0.111425214,
                    51.5000865
                ]
            },
            "properties": {
                "name": "Orso Major Gallery"
            }
        },
        {
            "type": "Feature",
            "geometry": {
                "type": "Point",
                "coordinates": [
                    -0.11158947,
                    51.500296
                ]
            },
            "properties": {
                "name": "Man & Eve"
            }
        },
        {
            "type": "Feature",
            "geometry": {
                "type": "Point",
                "coordinates": [
                    -0.136720207,
                    51.46213347
                ]
            },
            "properties": {
                "name": "Clapham Art Gallery"
            }
        },
        {
            "type": "Feature",
            "geometry": {
                "type": "Point",
                "coordinates": [
                    -0.093410366,
                    51.52981876
                ]
            },
            "properties": {
                "name": "Victoria Miro Gallery I"
            }
        },
        {
            "type": "Feature",
            "geometry": {
                "type": "Point",
                "coordinates": [
                    -0.142063888,
                    51.50849929
                ]
            },
            "properties": {
                "name": "Bischoff/Weiss"
            }
        },
        {
            "type": "Feature",
            "geometry": {
                "type": "Point",
                "coordinates": [
                    -0.095683504,
                    51.5026559
                ]
            },
            "properties": {
                "name": "Poppy Sebire"
            }
        },
        {
            "type": "Feature",
            "geometry": {
                "type": "Point",
                "coordinates": [
                    -0.081068884,
                    51.49893711
                ]
            },
            "properties": {
                "name": "White Cube"
            }
        },
        {
            "type": "Feature",
            "geometry": {
                "type": "Point",
                "coordinates": [
                    -0.072576615,
                    51.46558419
                ]
            },
            "properties": {
                "name": "Flat Time House"
            }
        },
        {
            "type": "Feature",
            "geometry": {
                "type": "Point",
                "coordinates": [
                    -0.057705715,
                    51.49160932
                ]
            },
            "properties": {
                "name": "Arch Collective"
            }
        },
        {
            "type": "Feature",
            "geometry": {
                "type": "Point",
                "coordinates": [
                    -0.092610677,
                    51.50411689
                ]
            },
            "properties": {
                "name": "Menier Gallery"
            }
        },
        {
            "type": "Feature",
            "geometry": {
                "type": "Point",
                "coordinates": [
                    -0.09749519,
                    51.50309902
                ]
            },
            "properties": {
                "name": "Jerwood Space Gallery"
            }
        },
        {
            "type": "Feature",
            "geometry": {
                "type": "Point",
                "coordinates": [
                    -0.06415312,
                    51.46949183
                ]
            },
            "properties": {
                "name": "Hanh Barry Gallery"
            }
        },
        {
            "type": "Feature",
            "geometry": {
                "type": "Point",
                "coordinates": [
                    -0.100592454,
                    51.50693554
                ]
            },
            "properties": {
                "name": "The Wapping Project Bankside"
            }
        },
        {
            "type": "Feature",
            "geometry": {
                "type": "Point",
                "coordinates": [
                    -0.15255372,
                    51.520921
                ]
            },
            "properties": {
                "name": "Contemporary Applied Arts"
            }
        },
        {
            "type": "Feature",
            "geometry": {
                "type": "Point",
                "coordinates": [
                    -0.14314012,
                    51.509603
                ]
            },
            "properties": {
                "name": "Cardi Gallery London"
            }
        },
        {
            "type": "Feature",
            "geometry": {
                "type": "Point",
                "coordinates": [
                    -0.05566,
                    51.52459
                ]
            },
            "properties": {
                "name": "Maureen Paley"
            }
        },
        {
            "type": "Feature",
            "geometry": {
                "type": "Point",
                "coordinates": [
                    0.005352869,
                    51.511286
                ]
            },
            "properties": {
                "name": "Arebyte"
            }
        },
        {
            "type": "Feature",
            "geometry": {
                "type": "Point",
                "coordinates": [
                    -0.13811417,
                    51.506691
                ]
            },
            "properties": {
                "name": "Modern Art"
            }
        },
        {
            "type": "Feature",
            "geometry": {
                "type": "Point",
                "coordinates": [
                    -0.21889938,
                    51.523233
                ]
            },
            "properties": {
                "name": "Michael Hoppen Gallery"
            }
        },
        {
            "type": "Feature",
            "geometry": {
                "type": "Point",
                "coordinates": [
                    -0.090595407,
                    51.51242
                ]
            },
            "properties": {
                "name": "London Mithraeum Bloomberg SPACE"
            }
        },
        {
            "type": "Feature",
            "geometry": {
                "type": "Point",
                "coordinates": [
                    -0.14057255,
                    51.522404
                ]
            },
            "properties": {
                "name": "Parasol unit"
            }
        },
        {
            "type": "Feature",
            "geometry": {
                "type": "Point",
                "coordinates": [
                    -0.13163513,
                    51.565714
                ]
            },
            "properties": {
                "name": "Five Years"
            }
        },
        {
            "type": "Feature",
            "geometry": {
                "type": "Point",
                "coordinates": [
                    -0.060076278,
                    51.535021
                ]
            },
            "properties": {
                "name": "Rocket Gallery"
            }
        },
        {
            "type": "Feature",
            "geometry": {
                "type": "Point",
                "coordinates": [
                    -0.02122,
                    51.53968
                ]
            },
            "properties": {
                "name": "Unit G Gallery"
            }
        },
        {
            "type": "Feature",
            "geometry": {
                "type": "Point",
                "coordinates": [
                    -0.075975007,
                    51.54575
                ]
            },
            "properties": {
                "name": "BSMT Space"
            }
        },
        {
            "type": "Feature",
            "geometry": {
                "type": "Point",
                "coordinates": [
                    -0.14275555,
                    51.516225
                ]
            },
            "properties": {
                "name": "Workplace Gallery"
            }
        },
        {
            "type": "Feature",
            "geometry": {
                "type": "Point",
                "coordinates": [
                    -0.14688727,
                    51.510661
                ]
            },
            "properties": {
                "name": "Paradise Row"
            }
        },
        {
            "type": "Feature",
            "geometry": {
                "type": "Point",
                "coordinates": [
                    -0.14092365,
                    51.51803
                ]
            },
            "properties": {
                "name": "Edel Assanti"
            }
        },
        {
            "type": "Feature",
            "geometry": {
                "type": "Point",
                "coordinates": [
                    -0.14554521,
                    51.514255
                ]
            },
            "properties": {
                "name": "Muccaccia Gallery London"
            }
        },
        {
            "type": "Feature",
            "geometry": {
                "type": "Point",
                "coordinates": [
                    -0.14385525,
                    51.512573
                ]
            },
            "properties": {
                "name": "James Hyman Fine Art"
            }
        },
        {
            "type": "Feature",
            "geometry": {
                "type": "Point",
                "coordinates": [
                    -0.13875522,
                    51.507933
                ]
            },
            "properties": {
                "name": "Aktis Gallery"
            }
        },
        {
            "type": "Feature",
            "geometry": {
                "type": "Point",
                "coordinates": [
                    -0.12345154,
                    51.479165
                ]
            },
            "properties": {
                "name": "The Sunday Painter"
            }
        },
        {
            "type": "Feature",
            "geometry": {
                "type": "Point",
                "coordinates": [
                    -0.099874759,
                    51.518353
                ]
            },
            "properties": {
                "name": "Beers London"
            }
        },
        {
            "type": "Feature",
            "geometry": {
                "type": "Point",
                "coordinates": [
                    -0.19315,
                    51.4659
                ]
            },
            "properties": {
                "name": "Plus One Gallery"
            }
        },
        {
            "type": "Feature",
            "geometry": {
                "type": "Point",
                "coordinates": [
                    -0.14309434,
                    51.513919
                ]
            },
            "properties": {
                "name": "Pace London 1"
            }
        },
        {
            "type": "Feature",
            "geometry": {
                "type": "Point",
                "coordinates": [
                    -0.11491639,
                    51.594564
                ]
            },
            "properties": {
                "name": "Highgate Contemporary Art"
            }
        },